郵遞區號,電腦局號,郵務局號,局名,電腦局名,縣市,鄉鎮市區,地址,完整地址,緯度,經度
10044,000100-6,100000,臺北北門郵局,臺北901支,臺北市,中正區,忠孝西路一段120號1樓,臺北市中正區忠孝西路一段120號1樓,25.047355,121.511431
10064,000101-0,100001,臺北東門郵局,臺北1支,臺北市,中正區,信義路二段163號,臺北市中正區信義路二段163號,25.03408,121.528922
10846,000102-3,100002,臺北漢中街郵局,臺北2支,臺北市,萬華區,漢中街173號,臺北市萬華區漢中街173號,25.04132,121.507005
10847,000103-7,100003,臺北西園郵局,臺北3支,臺北市,萬華區,長沙街二段156、158、160、162號,臺北市萬華區長沙街二段156、158、160、162號,25.040769,121.501031
10851,000104-1,100004,臺北龍山郵局,臺北4支,臺北市,萬華區,廣州街67號,臺北市萬華區廣州街67號,25.036559,121.504565
10075,000105-4,100005,臺北南海郵局,臺北5支,臺北市,中正區,重慶南路二段43號,臺北市中正區重慶南路二段43號,25.031833,121.514659
10083,000106-8,100006,臺北螢橋郵局,臺北6支,臺北市,中正區,廈門街76號,臺北市中正區廈門街76號,25.02463,121.517368
10644,000107-1,100007,臺北青田郵局,臺北7支,臺北市,大安區,和平東路一段155號,臺北市大安區和平東路一段155號,25.026851,121.531151
10041,000108-5,100008,臺北復興橋郵局,臺北8支,臺北市,中正區,忠孝西路一段1號,臺北市中正區忠孝西路一段1號,25.046041,121.519409
10444,000109-9,100009,臺北中山郵局,臺北9支,臺北市,中山區,中山北路一段142號,臺北市中山區中山北路一段142號,25.051515,121.522121
10343,000110-1,100010,臺北迪化街郵局,臺北10支,臺北市,大同區,迪化街一段38號,臺北市大同區迪化街一段38號,25.054805,121.510023
10356,000111-4,100011,臺北圓環郵局,臺北11支,臺北市,大同區,重慶北路二段15號,臺北市大同區重慶北路二段15號,25.054665,121.514425
10051,000112-8,100012,行政院郵局,臺北12支,臺北市,中正區,北平東路2號(行政院內),臺北市中正區北平東路2號(行政院內),25.04687,121.521525
10091,000113-1,100013,臺北公館郵局,臺北13支,臺北市,中正區,羅斯福路四段74號(B1),臺北市中正區羅斯福路四段74號(B1),25.015428,121.534035
10048,000114-5,100014,國史館郵局,臺北14支,臺北市,中正區,博愛路168號之1,臺北市中正區博愛路168號之1,25.039789,121.511064
10048,000115-9,100015,總統府郵局,臺北15支,臺北市,中正區,重慶南路一段122號(總統府內),臺北市中正區重慶南路一段122號(總統府內),25.039824,121.511596
10449,000117-6,100017,臺北雙連郵局,臺北17支,臺北市,中山區,中山北路二段96號,臺北市中山區中山北路二段96號,25.059406,121.522548
10566,000118-0,100018,臺北松山郵局,臺北18支,臺北市,松山區,八德路四段626號,臺北市松山區八德路四段626號,25.049869,121.574143
10048,000120-5,100020,臺北法院郵局,臺北20支,臺北市,中正區,博愛路127號(司法大廈內),臺北市中正區博愛路127號(司法大廈內),25.038072,121.511139
10357,000121-9,100021,臺北臺北橋郵局,臺北21支,臺北市,大同區,民權西路246號,臺北市大同區民權西路246號,25.062796,121.512683
10610,000122-2,100022,臺北師大郵局,臺北22支,臺北市,大安區,和平東路一段162號,臺北市大安區和平東路一段162號,25.025924,121.528313
10617,000123-6,100023,臺大郵局,臺北23支,臺北市,大安區,羅斯福路四段1號(台灣大學內),臺北市大安區羅斯福路四段1號(台灣大學內),25.018646,121.537433
10651,000124-0,100024,臺北仁愛路郵局,臺北24支,臺北市,大安區,仁愛路三段47號,臺北市大安區仁愛路三段47號,25.038628,121.535569
10051,000125-3,100025,立法院郵局,臺北25支,臺北市,中正區,濟南路一段1號,臺北市中正區濟南路一段1號,25.043253,121.519897
10682,000126-7,100026,臺北信維郵局,臺北26支,臺北市,大安區,信義路四段74號,臺北市大安區信義路四段74號,25.033141,121.546419
10479,000127-1,100027,臺北建北郵局,臺北27支,臺北市,中山區,建國北路二段33號,臺北市中山區建國北路二段33號,25.055026,121.537185
11163,000128-4,100028,士林郵局,臺北28支,臺北市,士林區,文林路162號,臺北市士林區文林路162號,25.089289,121.526882
11670,000129-8,100029,文山景美郵局,臺北29支,臺北市,文山區,羅斯福路六段389號,臺北市文山區羅斯福路六段389號,24.992446,121.540901
10084,000130-0,100030,臺北古亭郵局,臺北30支,臺北市,中正區,南昌路二段232號,臺北市中正區南昌路二段232號,25.023693,121.524667
10869,000131-3,100031,臺北東園郵局,臺北31支,臺北市,萬華區,東園街148、150號,臺北市萬華區東園街148、150號,25.023318,121.497552
10666,000132-7,100032,臺北光華郵局,臺北32支,臺北市,大安區,新生北路一段7之2號,臺北市大安區新生北路一段7之2號,25.045154,121.533162
10047,000133-1,100033,臺北南陽郵局,臺北33支,臺北市,中正區,信陽街8號,臺北市中正區信陽街8號,25.044638,121.516071
10488,000134-4,100034,臺北中崙郵局,臺北34支,臺北市,中山區,復興北路40號,臺北市中山區復興北路40號,25.049404,121.543718
10862,000135-8,100035,臺北莒光郵局,臺北35支,臺北市,萬華區,莒光路210號,臺北市萬華區莒光路210號,25.031396,121.501124
10555,000136-1,100036,臺北光復郵局,臺北36支,臺北市,松山區,八德路三段240號,臺北市松山區八德路三段240號,25.047994,121.557611
10465,000137-5,100037,臺北大直郵局,臺北37支,臺北市,中山區,北安路518巷14弄18、20號,臺北市中山區北安路518巷14弄18、20號,25.078971,121.545445
10044,000139-2,100039,臺北重南郵局,臺北39支,臺北市,中正區,忠孝西路一段120號1樓,臺北市中正區忠孝西路一段120號1樓,25.046834,121.511366
11165,000142-1,100042,士林社子郵局,臺北42支,臺北市,士林區,延平北路五段150號,臺北市士林區延平北路五段150號,25.082442,121.510448
10692,000143-5,100043,臺北三張犁郵局,臺北43支,臺北市,大安區,信義路四段337號,臺北市大安區信義路四段337號,25.033252,121.556403
10670,000144-9,100044,臺北成功郵局,臺北44支,臺北市,大安區,四維路198巷38弄12號,臺北市大安區四維路198巷38弄12號,25.026465,121.545403
10548,000145-2,100045,松山機場郵局,臺北45支,臺北市,松山區,敦化北路340-9號(松山機場內 ),臺北市松山區敦化北路340-9號(松山機場內 ),25.063785,121.550858
10455,000146-6,100046,臺北長安郵局,臺北46支,臺北市,中山區,長安東路二段97號,臺北市中山區長安東路二段97號,25.048551,121.53485
10364,000147-0,100047,臺北大同郵局,臺北47支,臺北市,大同區,承德路三段83號,臺北市大同區承德路三段83號,25.065868,121.518614
10569,000148-3,100048,臺北西松郵局,臺北48支,臺北市,松山區,南京東路五段311號,臺北市松山區南京東路五段311號,25.051579,121.566694
11008,000149-7,100049,臺北市府郵局,臺北49支,臺北市,信義區,市府路1號地下2樓(台北市政府內),臺北市信義區市府路1號地下2樓(台北市政府內),25.037536,121.563781
10371,000150-9,100050,臺北大龍峒郵局,臺北50支,臺北市,大同區,重慶北路三段338號,臺北市大同區重慶北路三段338號,25.076127,121.513628
11086,000151-2,100051,臺北松德郵局,臺北51支,臺北市,信義區,松德路300號,臺北市信義區松德路300號,25.032029,121.574276
11151,000152-6,100052,士林天母郵局,臺北52支,臺北市,士林區,中山北路七段130號,臺北市士林區中山北路七段130號,25.122812,121.532146
10691,000153-0,100053,臺北光武郵局,臺北53支,臺北市,大安區,大安路一段52巷16號,臺北市大安區大安路一段52巷16號,25.043027,121.545601
11050,000154-3,100054,臺北吳興郵局,臺北54支,臺北市,信義區,莊敬路418號之1,臺北市信義區莊敬路418號之1,25.026957,121.566366
10468,000155-7,100055,臺北松江路郵局,臺北55支,臺北市,中山區,松江路364號,臺北市中山區松江路364號,25.06207,121.532975
10572,000156-1,100056,臺北延壽郵局,臺北56支,臺北市,松山區,民生東路五段12號,臺北市松山區民生東路五段12號,25.058159,121.555969
10674,000157-4,100057,臺北六張犁郵局,臺北57支,臺北市,大安區,和平東路三段208號,臺北市大安區和平東路三段208號,25.022872,121.553823
10066,000158-8,100058,臺北小南門郵局,臺北58支,臺北市,中正區,廣州街15號,臺北市中正區廣州街15號,25.03579,121.508111
11143,000159-1,100059,故宮郵局,臺北59支,臺北市,士林區,至善路二段221號(故宮博物院內),臺北市士林區至善路二段221號(故宮博物院內),25.102015,121.548764
10359,000161-7,100061,臺北保安郵局,臺北61支,臺北市,大同區,重慶北路二段183號,臺北市大同區重慶北路二段183號,25.059877,121.513758
10041,000164-8,100064,臺北火車站郵局,臺北64支,臺北市,中正區,北平西路3號(台北火車站內),臺北市中正區北平西路3號(台北火車站內),25.047161,121.517544
10460,000165-1,100065,臺北圓山郵局,臺北65支,臺北市,中山區,林森北路573號,臺北市中山區林森北路573號,25.065024,121.525811
10459,000167-9,100067,臺北長春路郵局,臺北67支,臺北市,中山區,長春路129號之2,臺北市中山區長春路129號之2,25.055003,121.530632
10449,000168-2,100068,臺北民權郵局,臺北68支,臺北市,中山區,民權西路22號,臺北市中山區民權西路22號,25.062578,121.521633
10849,000170-8,100070,臺北老松郵局,臺北70支,臺北市,萬華區,桂林路51號,臺北市萬華區桂林路51號,25.038076,121.504011
10091,000171-1,100071,臺北汀州郵局,臺北71支,臺北市,中正區,汀州路三段301號,臺北市中正區汀州路三段301號,25.011795,121.53588
10070,000172-5,100072,臺北龍口郵局,臺北72支,臺北市,中正區,和平西路二段68號,臺北市中正區和平西路二段68號,25.029097,121.511598
11162,000173-9,100073,士林中正路郵局,臺北73支,臺北市,士林區,中正路420號,臺北市士林區中正路420號,25.093549,121.51952
10872,000174-2,100074,臺北萬大路郵局,臺北74支,臺北市,萬華區,萬大路524號,臺北市萬華區萬大路524號,25.018886,121.496783
11689,000175-6,100075,文山興隆路郵局,臺北75支,臺北市,文山區,興隆路二段171號,臺北市文山區興隆路二段171號,25.000715,121.548895
11169,000177-3,100077,士林後港郵局,臺北77支,臺北市,士林區,福港街149巷2號,臺北市士林區福港街149巷2號,25.087416,121.518299
11066,000178-7,100078,臺北永吉郵局,臺北78支,臺北市,信義區,永吉路168號1樓,臺北市信義區永吉路168號1樓,25.045516,121.571012
10857,000179-1,100079,臺北華江橋郵局,臺北79支,臺北市,萬華區,和平西路三段310號,臺北市萬華區和平西路三段310號,25.035297,121.493029
11071,000180-2,100080,臺北逸仙郵局,臺北80支,臺北市,信義區,逸仙路46號,臺北市信義區逸仙路46號,25.040358,121.56166
10595,000181-6,100081,臺北體育場郵局,臺北81支,臺北市,松山區,儲匯：南京東路三段346號  郵務：南京東路三段346號後棟,臺北市松山區儲匯：南京東路三段346號  郵務：南京東路三段346號後棟,25.051564,121.548497
10655,000182-0,100082,臺北正義郵局,臺北82支,臺北市,大安區,忠孝東路三段150、152、154號,臺北市大安區忠孝東路三段150、152、154號,25.041511,121.538303
11148,000183-3,100083,士林蘭雅郵局,臺北83支,臺北市,士林區,忠誠路一段52號,臺北市士林區忠誠路一段52號,25.104639,121.526931
10053,000184-7,100084,臺北杭南郵局,臺北84支,臺北市,中正區,杭州南路一段23號之3,臺北市中正區杭州南路一段23號之3,25.042273,121.526462
11102,000186-4,100086,東吳大學郵局,臺北86支,臺北市,士林區,臨溪路70號(東吳大學內),臺北市士林區臨溪路70號(東吳大學內),25.094071,121.546299
10589,000187-8,100087,臺北民生郵局,臺北87支,臺北市,松山區,民生東路五段191號,臺北市松山區民生東路五段191號,25.059215,121.565703
10607,000190-7,100090,臺灣科大郵局,臺北90支,臺北市,大安區,基隆路四段43號(台灣科技大學內),臺北市大安區基隆路四段43號(台灣科技大學內),25.013933,121.542483
10603,000191-1,100091,臺北金南郵局,臺北91支,臺北市,大安區,愛國東路216號,臺北市大安區愛國東路216號,25.031831,121.524565
10048,000192-4,100092,臺北中正堂郵局,臺北92支,臺北市,中正區,中山南路21號(中正紀念堂內),臺北市中正區中山南路21號(中正紀念堂內),25.035107,121.52211
11681,000193-8,100093,文山武功郵局,臺北93支,臺北市,文山區,羅斯福路五段147號,臺北市文山區羅斯福路五段147號,25.004078,121.539054
10881,000195-5,100095,臺北青年郵局,臺北95支,臺北市,萬華區,國興路34、36、38號,臺北市萬華區國興路34、36、38號,25.024785,121.508037
10680,000196-9,100096,臺北安和郵局,臺北96支,臺北市,大安區,安和路二段61、63號,臺北市大安區安和路二段61、63號,25.030837,121.552661
11677,000197-2,100097,文山萬盛郵局,臺北97支,臺北市,文山區,汀州路四段88號(師大分部內),臺北市文山區汀州路四段88號(師大分部內),25.008077,121.536506
11061,000199-0,100099,臺北永春郵局,臺北99支,臺北市,信義區,忠孝東路五段464、466號,臺北市信義區忠孝東路五段464、466號,25.040682,121.576702
10051,000200-1,100100,監察院郵局,臺北100支,臺北市,中正區,忠孝東路一段2號(監察院東側，面向鎮江街),臺北市中正區忠孝東路一段2號(監察院東側，面向鎮江街),25.044816,121.521362
10543,000201-5,100101,臺北榮星郵局,臺北101支,臺北市,松山區,民權東路三段124之1、2號,臺北市松山區民權東路三段124之1、2號,25.06188,121.545914
10466,000204-6,100104,臺北北安郵局,臺北104支,臺北市,中山區,北安路630巷10號,臺北市中山區北安路630巷10號,25.082668,121.549846
11154,000205-0,100105,士林芝山郵局,臺北105支,臺北市,士林區,士東路286巷36號,臺北市士林區士東路286巷36號,25.11143,121.537413
11154,000206-3,100106,士林法院郵局,臺北106支,臺北市,士林區,士東路190號,臺北市士林區士東路190號,25.111961,121.533128
10042,000207-7,100107,臺北中山堂郵局,臺北107支,臺北市,中正區,中華路一段53號,臺北市中正區中華路一段53號,25.042993,121.509104
10688,000208-1,100108,臺北敦南郵局,臺北108支,臺北市,大安區,忠孝東路四段170巷9號,臺北市大安區忠孝東路四段170巷9號,25.040667,121.55085
11011,000209-4,100109,臺北世貿郵局,臺北109支,臺北市,信義區,信義路五段5號(世貿中心內),臺北市信義區信義路五段5號(世貿中心內),25.034177,121.561827
10065,000210-6,100110,臺北南門郵局,臺北110支,臺北市,中正區,廣州街2號,臺北市中正區廣州街2號,25.034783,121.5105
11698,000211-0,100111,文山萬芳郵局,臺北111支,臺北市,文山區,興隆路三段178、180號,臺北市文山區興隆路三段178、180號,24.998114,121.55863
10480,000212-3,100112,臺北興安郵局,臺北112支,臺北市,中山區,復興北路210、212號,臺北市中山區復興北路210、212號,25.056242,121.543872
10002,000215-4,100115,臺大醫院郵局,臺北115支,臺北市,中正區,中山南路七號(台大醫院內),臺北市中正區中山南路七號(台大醫院內),25.0402,121.518927
11144,000216-8,100116,士林外雙溪郵局,臺北116支,臺北市,士林區,明溪街15號,臺北市士林區明溪街15號,25.107014,121.565203
10658,000217-1,100117,臺北大安郵局,臺北117支,臺北市,大安區,信義路三段89號,臺北市大安區信義路三段89號,25.033703,121.538257
10574,000218-5,100118,臺北台塑郵局,臺北118支,臺北市,松山區,民生東路四段54之2號,臺北市松山區民生東路四段54之2號,25.057366,121.550939
10055,000220-1,100120,臺北中聯郵局,臺北120支,臺北市,中正區,徐州路5號地下一樓(中央聯合辦公大樓內),臺北市中正區徐州路5號地下一樓(中央聯合辦公大樓內),25.042225,121.519468
10476,000221-4,100121,臺北龍江路郵局,臺北121支,臺北市,中山區,龍江路335號,臺北市中山區龍江路335號,25.063333,121.541036
10462,000222-8,100122,國防部郵局,臺北122支,臺北市,中山區,北安路409號,臺北市中山區北安路409號,25.082813,121.540196
11166,000223-1,100123,士林劍潭郵局,臺北123支,臺北市,士林區,基河路14號,臺北市士林區基河路14號,25.081748,121.523908
11291,000224-5,100124,陽明山郵局,臺北124支,臺北市,北投區,紗帽路139之1號,臺北市北投區紗帽路139之1號,25.15125,121.546164
11114,000225-9,100125,文化大學郵局,臺北125支,臺北市,士林區,華岡路55號,臺北市士林區華岡路55號,25.1359,121.538735
11172,000226-2,100126,士林社新里郵局,臺北126支,臺北市,士林區,延平北路六段197號,臺北市士林區延平北路六段197號,25.089392,121.505844
11058,000228-0,100128,臺北信義郵局,臺北128支,臺北市,信義區,松廉路76號(信義投遞中心),臺北市信義區松廉路76號(信義投遞中心),25.033821,121.567224
11142,000229-3,100129,士林名山里郵局,臺北129支,臺北市,士林區,至誠路二段70號,臺北市士林區至誠路二段70號,25.101736,121.528281
11246,000231-9,100131,北投郵局,臺北131支,臺北市,北投區,光明路181號,臺北市北投區光明路181號,25.135832,121.503085
11267,000233-6,100133,北投石牌郵局,臺北133支,臺北市,北投區,石牌路二段93-2號,臺北市北投區石牌路二段93-2號,25.117416,121.516364
11260,000234-0,100134,北投關渡郵局,臺北134支,臺北市,北投區,知行路293巷9弄11號,臺北市北投區知行路293巷9弄11號,25.121557,121.466872
11263,000235-3,100135,北投舊北投郵局,臺北135支,臺北市,北投區,中央南路一段201號,臺北市北投區中央南路一段201號,25.128522,121.501316
11217,000236-7,100136,北投榮總郵局,臺北136支,臺北市,北投區,石牌路二段201號,臺北市北投區石牌路二段201號,25.119464,121.520153
11287,000237-1,100137,北投文林郵局,臺北137支,臺北市,北投區,文林北路96號,臺北市北投區文林北路96號,25.105614,121.517716
11252,000238-4,100138,北投山腳郵局,臺北138支,臺北市,北投區,中和街408號,臺北市北投區中和街408號,25.143737,121.4981
11276,000239-8,100139,北投實踐郵局,臺北139支,臺北市,北投區,實踐街48巷11號,臺北市北投區實踐街48巷11號,25.114574,121.509347
11290,000240-0,100140,北投致遠郵局,臺北140支,臺北市,北投區,致遠一路1段121號,臺北市北投區致遠一路1段121號,25.110105,121.514895
11253,000241-3,100141,北投文化郵局,臺北141支,臺北市,北投區,文化三路8號,臺北市北投區文化三路8號,25.137376,121.497491
11280,000242-7,100142,北投明德郵局,臺北142支,臺北市,北投區,明德路210號,臺北市北投區明德路210號,25.113297,121.522169
11275,000243-1,100143,北投尊賢郵局,臺北143支,臺北市,北投區,尊賢街247-4號,臺北市北投區尊賢街247-4號,25.117583,121.506709
11245,000244-4,100144,北投奇岩郵局,臺北144支,臺北市,北投區,公館路271號,臺北市北投區公館路271號,25.125148,121.507658
11258,000245-8,100145,北投豐年郵局,臺北145支,臺北市,北投區,中央北路二段329號,臺北市北投區中央北路二段329號,25.138336,121.489256
11257,000246-1,100146,北投一德郵局,臺北146支,臺北市,北投區,中央北路四段529號,臺北市北投區中央北路四段529號,25.127858,121.467949
11221,000247-5,100147,陽明大學郵局,臺北147支,臺北市,北投區,立農街二段155號,臺北市北投區立農街二段155號,25.119281,121.513828
11466,000248-9,100148,內湖郵局,臺北148支,臺北市,內湖區,民權東路六段83號,臺北市內湖區民權東路六段83號,25.069272,121.588113
11464,000249-2,100149,內湖碧湖郵局,臺北149支,臺北市,內湖區,內湖路二段225號,臺北市內湖區內湖路二段225號,25.081811,121.588881
11470,000250-4,100150,內湖週美郵局,臺北150支,臺北市,內湖區,新明路380巷4弄4號,臺北市內湖區新明路380巷4弄4號,25.055081,121.580071
11475,000251-8,100151,內湖文德郵局,臺北151支,臺北市,內湖區,文德路26號,臺北市內湖區文德路26號,25.078289,121.579716
11454,000252-1,100152,內湖金龍郵局,臺北152支,臺北市,內湖區,內湖路三段131號,臺北市內湖區內湖路三段131號,25.086794,121.589984
11444,000253-5,100153,內湖西湖郵局,臺北153支,臺北市,內湖區,內湖路一段331號,臺北市內湖區內湖路一段331號,25.082327,121.568297
11480,000254-9,100154,內湖東湖郵局,臺北154支,臺北市,內湖區,康樂街16號,臺北市內湖區康樂街16號,25.068211,121.617868
11481,000255-2,100155,內湖大湖郵局,臺北155支,臺北市,內湖區,大湖街166巷2號,臺北市內湖區大湖街166巷2號,25.084321,121.600631
11492,000256-6,100156,內湖江南郵局,臺北156支,臺北市,內湖區,瑞光路316巷1號,臺北市內湖區瑞光路316巷1號,25.076505,121.573929
11442,000257-0,100157,內湖北勢湖郵局,臺北157支,臺北市,內湖區,內湖路一段91巷2-1號,臺北市內湖區內湖路一段91巷2-1號,25.084722,121.561453
11494,000258-3,100158,內湖舊宗郵局,臺北158支,臺北市,內湖區,舊宗路一段189號,臺北市內湖區舊宗路一段189號,25.06229,121.577979
11486,000259-7,100159,內湖康寧郵局,臺北159支,臺北市,內湖區,康寧路三段22號之1,臺北市內湖區康寧路三段22號之1,25.072277,121.607769
11490,000260-9,100160,內湖三總郵局,臺北160支,臺北市,內湖區,成功路二段325號2樓,臺北市內湖區成功路二段325號2樓,25.071849,121.592291
11558,000261-2,100161,南港昆陽郵局,臺北161支,臺北市,南港區,忠孝東路六段400、402、404、406號,臺北市南港區忠孝東路六段400、402、404、406號,25.049883,121.592612
11574,000262-6,100162,中研院郵局,臺北162支,臺北市,南港區,研究院路二段108號,臺北市南港區研究院路二段108號,25.042823,121.616507
11554,000264-3,100164,南港港三郵局,臺北164支,臺北市,南港區,南港路三段184號,臺北市南港區南港路三段184號,25.053138,121.587043
11571,000265-7,100165,南港富康郵局,臺北165支,臺北市,南港區,研究院路一段44號,臺北市南港區研究院路一段44號,25.053488,121.616197
11556,000266-1,100166,南港同德郵局,臺北166支,臺北市,南港區,同德路85巷2號,臺北市南港區同德路85巷2號,25.04624,121.585658
11579,000267-4,100167,南港郵局,臺北167支,臺北市,南港區,南港路二段78號,臺北市南港區南港路二段78號,25.053889,121.603416
11555,000268-8,100168,南港福德郵局,臺北168支,臺北市,南港區,福德街314、316號,臺北市南港區福德街314、316號,25.039413,121.58774
11575,000269-1,100169,南港後山埤郵局,臺北169支,臺北市,南港區,忠孝東路五段994號,臺北市南港區忠孝東路五段994號,25.044881,121.582686
11648,000270-3,100170,木柵郵局,臺北170支,臺北市,文山區,木柵路三段27號,臺北市文山區木柵路三段27號,24.988476,121.565401
11651,000271-7,100171,文山指南郵局,臺北171支,臺北市,文山區,指南路二段115號,臺北市文山區指南路二段115號,24.987652,121.576301
11645,000272-1,100172,文山溝子口郵局,臺北172支,臺北市,文山區,木柵路1段119號,臺北市文山區木柵路1段119號,24.987328,121.548489
11659,000273-4,100173,文山木新郵局,臺北173支,臺北市,文山區,木新路3段329號,臺北市文山區木新路3段329號,24.980414,121.556252
22342,000274-8,100174,石碇郵局,臺北174支,新北市,石碇區,碇坪路1段78-80號,新北市石碇區碇坪路1段78-80號,24.99135,121.657687
22244,000275-1,100175,深坑郵局,臺北175支,新北市,深坑區,北深路3段30號,新北市深坑區北深路3段30號,25.001209,121.6092
11604,000276-5,100176,世新大學郵局,臺北176支,臺北市,文山區,木柵路1段17巷1號,臺北市文山區木柵路1段17巷1號,24.989503,121.54503
10052,000277-9,100177,臺北仁杭郵局,臺北177支,臺北市,中正區,杭州南路１段24號1樓(交通部大樓國際會議廳),臺北市中正區杭州南路１段24號1樓(交通部大樓國際會議廳),25.037588,121.524695
11658,000278-2,100178,文山樟腳里郵局,臺北178支,臺北市,文山區,木新路3段25號,臺北市文山區木新路3段25號,24.982514,121.564727
11605,000279-6,100179,政大郵局,臺北179支,臺北市,文山區,指南路2段64號(國立政治大學藝文中心內),臺北市文山區指南路2段64號(國立政治大學藝文中心內),24.982062,121.572313
22301,000280-8,100180,石碇華梵大學郵局,臺北180支,新北市,石碇區,豐田里華梵路1號,新北市石碇區豐田里華梵路1號,24.981379,121.690965
22241,000281-1,100181,深坑草地尾郵局,臺北181支,新北市,深坑區,北深路3段264號之1,新北市深坑區北深路3段264號之1,25.004616,121.598896
22641,000282-5,100182,平溪郵局,臺北182支,新北市,平溪區,平溪街42號,新北市平溪區平溪街42號,25.025971,121.738489
11665,000283-9,100183,文山萬美街郵局,臺北183支,臺北市,文山區,萬美街1段51號,臺北市文山區萬美街1段51號,25.002266,121.568186
89345,000284-2,100184,金門郵局,臺北184支,金門縣,金城鎮,民生路４號,金門縣金城鎮民生路４號,24.432988,118.32054
89049,000285-6,100185,金門沙美郵局,臺北185支,金門縣,金沙鎮,國中路21號,金門縣金沙鎮國中路21號,24.489106,118.414389
89250,000286-0,100186,金門頂堡郵局,臺北186支,金門縣,金寧鄉,頂堡52號,金門縣金寧鄉頂堡52號,24.44782,118.338827
89441,000287-3,100187,金門烈嶼郵局,臺北187支,金門縣,烈嶼鄉,林湖村西宅7之5號,金門縣烈嶼鄉林湖村西宅7之5號,24.429511,118.247577
89146,000288-7,100188,金門尚義郵局,臺北188支,金門縣,金湖鎮,尚義機場2號,金門縣金湖鎮尚義機場2號,24.435802,118.368056
20941,000289-1,100189,馬祖郵局,臺北189支,連江縣,南竿鄉,福沃村141號,連江縣南竿鄉福沃村141號,26.157328,119.94165
20942,000290-2,100190,馬祖馬港郵局,臺北190支,連江縣,南竿鄉,馬祖村51-2號,連江縣南竿鄉馬祖村51-2號,26.159494,119.919197
11503,000291-6,100191,南港軟體園區郵局,臺北191支,臺北市,南港區,園區街3-2號H棟1樓,臺北市南港區園區街3-2號H棟1樓,25.056619,121.611896
10462,000292-0,100192,臺北樂群二路郵局,臺北192支,臺北市,中山區,樂群二路147號,臺北市中山區樂群二路147號,25.080134,121.557167
89142,000350-0,100250,金門山外郵局,臺北250支,金門縣,金湖鎮,林森路39號,金門縣金湖鎮林森路39號,24.442197,118.415488
21141,000353-1,100253,馬祖西莒郵局,臺北253支,連江縣,莒光鄉,西莒青帆村17號,連江縣莒光鄉西莒青帆村17號,25.960157,119.972172
21041,000354-4,100254,馬祖北竿郵局,臺北254支,連江縣,北竿鄉,塘岐村256號,連江縣北竿鄉塘岐村256號,26.224585,119.997248
21241,000356-1,100256,馬祖東引郵局,臺北256支,連江縣,東引鄉,樂華村69號,連江縣東引鄉樂華村69號,26.366926,120.487659
89641,000357-5,100257,金門烏坵郵局,臺北257支,金門縣,烏坵鄉,大坵村,金門縣烏坵鄉大坵村,24.988868,119.453982
21191,000355-8,100255,馬祖東莒郵局,臺北255支,連江縣,莒光鄉,東莒大坪村55號,連江縣莒光鄉東莒大坪村55號,25.960157,119.972172
20047,001100-2,200450,基隆愛三路郵局,基隆901支,基隆市,仁愛區,愛三路130號1F,基隆市仁愛區愛三路130號1F,25.129912,121.743734
20248,001101-6,200001,基隆港東郵局,基隆1支,基隆市,中正區,中正路56號,基隆市中正區中正路56號,25.134231,121.74559
20041,001102-0,200002,基隆港西街郵局,基隆2支,基隆市,仁愛區,港西街10號,基隆市仁愛區港西街10號,25.133743,121.740739
20645,001103-3,200003,基隆七堵郵局,基隆3支,基隆市,七堵區,明德一路171號,基隆市七堵區明德一路171號,25.097194,121.712767
20248,001104-7,200004,基隆中正郵局,基隆4支,基隆市,中正區,中正路393巷18號,基隆市中正區中正路393巷18號,25.151176,121.7664
20341,001105-1,200005,基隆新民郵局,基隆5支,基隆市,中山區,新民路19號,基隆市中山區新民路19號,25.130573,121.736323
20246,001106-4,200006,基隆和平島郵局,基隆6支,基隆市,中正區,和一路129號,基隆市中正區和一路129號,25.154916,121.765401
20224,001107-8,200007,海洋大學郵局,基隆7支,基隆市,中正區,北寧路2號,基隆市中正區北寧路2號,25.150583,121.775569
20542,001108-1,200008,基隆過港路郵局,基隆8支,基隆市,暖暖區,過港路58號,基隆市暖暖區過港路58號,25.105212,121.737722
20042,001109-5,200009,基隆孝三路郵局,基隆9支,基隆市,仁愛區,孝三路62號,基隆市仁愛區孝三路62號,25.130425,121.739608
20342,001110-7,200010,基隆中山郵局,基隆10支,基隆市,中山區,中華路3號,基隆市中山區中華路3號,25.144871,121.738659
20249,001111-1,200011,基隆八斗子郵局,基隆11支,基隆市,中正區,八斗街14號,基隆市中正區八斗街14號,25.140034,121.796289
20147,001112-4,200012,基隆信義郵局,基隆12支,基隆市,信義區,信二路178號,基隆市信義區信二路178號,25.129461,121.753495
20145,001113-8,200013,基隆東信路郵局,基隆13支,基隆市,信義區,東信路123號,基隆市信義區東信路123號,25.128232,121.763864
20647,001114-1,200014,基隆六堵郵局,基隆14支,基隆市,七堵區,工東街64號,基隆市七堵區工東街64號,25.08838,121.703414
20248,001115-5,200015,基隆安瀾橋郵局,基隆15支,基隆市,中正區,中正路330號,基隆市中正區中正路330號,25.142837,121.761035
20048,001116-9,200016,基隆仁二路郵局,基隆16支,基隆市,仁愛區,仁二路19號,基隆市仁愛區仁二路19號,25.127587,121.750388
20043,001117-2,200017,基隆光二路郵局,基隆17支,基隆市,仁愛區,光二路1號,基隆市仁愛區光二路1號,25.127372,121.737208
20447,001118-6,200018,基隆樂利郵局,基隆18支,基隆市,安樂區,樂利三街261號,基隆市安樂區樂利三街261號,25.126704,121.715858
20045,001119-0,200019,基隆南榮路郵局,基隆19支,基隆市,仁愛區,南榮路20號,基隆市仁愛區南榮路20號,25.125719,121.742639
20545,001120-1,200020,基隆碇內郵局,基隆20支,基隆市,暖暖區,源遠路341號,基隆市暖暖區源遠路341號,25.099545,121.758228
20448,001121-5,200021,基隆安樂路郵局,基隆21支,基隆市,安樂區,安樂路二段132號,基隆市安樂區安樂路二段132號,25.121475,121.72397
20348,001122-9,200022,基隆復興路郵局,基隆22支,基隆市,中山區,復興路38號,基隆市中山區復興路38號,25.14179,121.726819
20649,001124-6,200024,基隆百福郵局,基隆24支,基隆市,七堵區,百五街93號,基隆市七堵區百五街93號,25.084234,121.698014
20242,001125-0,200025,基隆三沙灣郵局,基隆25支,基隆市,中正區,中船路112巷28號,基隆市中正區中船路112巷28號,25.138374,121.752199
20445,001126-3,200026,基隆大武崙郵局,基隆26支,基隆市,安樂區,基金一路131-24號,基隆市安樂區基金一路131-24號,25.140219,121.711878
22843,001128-1,200028,貢寮郵局,基隆28支,新北市,貢寮區,貢寮街50號,新北市貢寮區貢寮街50號,25.019582,121.908842
22844,001129-4,200029,貢寮澳底郵局,基隆29支,新北市,貢寮區,仁和路230號,新北市貢寮區仁和路230號,25.053709,121.924054
20745,001130-6,200030,萬里郵局,基隆30支,新北市,萬里區,瑪鋉路48號,新北市萬里區瑪鋉路48號,25.177627,121.689595
20544,001131-0,200031,基隆暖暖郵局,基隆31支,基隆市,暖暖區,暖暖街190號,基隆市暖暖區暖暖街190號,25.099258,121.7356
20845,001132-3,200032,金山郵局,基隆32支,新北市,金山區,中山路97號,新北市金山區中山路97號,25.218944,121.639875
22744,001133-7,200033,雙溪郵局,基隆33支,新北市,雙溪區,太平路81號,新北市雙溪區太平路81號,25.036275,121.865347
22441,001134-1,200034,瑞芳郵局,基隆34支,新北市,瑞芳區,中正路13號,新北市瑞芳區中正路13號,25.10706,121.808108
22448,001135-4,200035,瑞芳九份郵局,基隆35支,新北市,瑞芳區,基山街126號,新北市瑞芳區基山街126號,25.108383,121.84386
22445,001136-8,200036,瑞芳四腳亭郵局,基隆36支,新北市,瑞芳區,大埔路132-1號,新北市瑞芳區大埔路132-1號,25.100695,121.761797
22450,001137-1,200037,瑞芳金瓜石郵局,基隆37支,新北市,瑞芳區,金光路51-1號,新北市瑞芳區金光路51-1號,25.108004,121.857654
20251,001138-5,200038,基隆新豐街郵局,基隆38支,基隆市,中正區,新豐街482號2樓,基隆市中正區新豐街482號2樓,25.135488,121.785179
22173,001139-9,200039,汐止郵局,基隆39支,新北市,汐止區,大同路三段168號,新北市汐止區大同路三段168號,25.075533,121.673632
22146,001141-4,200041,汐止樟樹灣郵局,基隆41支,新北市,汐止區,大同路一段322號,新北市汐止區大同路一段322號,25.058734,121.637542
22157,001142-8,200042,汐止社后郵局,基隆42支,新北市,汐止區,康寧街426號,新北市汐止區康寧街426號,25.068028,121.630769
22167,001143-1,200043,汐止龍安郵局,基隆43支,新北市,汐止區,龍安路42號,新北市汐止區龍安路42號,25.063701,121.654254
22147,001144-5,200044,汐止厚德郵局,基隆44支,新北市,汐止區,樟樹一路224號,新北市汐止區樟樹一路224號,25.06651,121.642481
22176,001145-9,200045,汐止翠柏郵局,基隆45支,新北市,汐止區,永春一路5號,新北市汐止區永春一路5號,25.112449,121.602575
22165,001146-2,200046,汐止南昌郵局,基隆46支,新北市,汐止區,新昌路72號,新北市汐止區新昌路72號,25.068879,121.663611
22174,001147-6,200047,汐止建成路郵局,基隆47支,新北市,汐止區,建成路58號,新北市汐止區建成路58號,25.073096,121.663698
40001,002100-9,400000,臺中民權路郵局,臺中901支,臺中市,中區,民權路86號,臺中市中區民權路86號,24.139121,120.678871
40250,002101-2,400001,臺中臺中路郵局,臺中1支,臺中市,南區,台中路100號,臺中市南區台中路100號,24.133263,120.683371
40355,002102-6,400002,臺中中正路郵局,臺中2支,臺中市,西區,臺灣大道一段701號,臺中市西區臺灣大道一段701號,24.147166,120.673956
41449,002103-0,400003,烏日郵局,臺中3支,臺中市,烏日區,光日路123號,臺中市烏日區光日路123號,24.105422,120.624623
40704,002105-7,400005,東海大學郵局,臺中5支,臺中市,西屯區,臺灣大道四段1727號(東海大學內),臺中市西屯區臺灣大道四段1727號(東海大學內),24.180446,120.598531
41346,002106-1,400006,霧峰民生路郵局,臺中6支,臺中市,霧峰區,民生路93號,臺中市霧峰區民生路93號,24.065795,120.700242
41341,002108-8,400008,霧峰郵局,臺中8支,臺中市,霧峰區,中正路806號,臺中市霧峰區中正路806號,24.061762,120.698481
42879,002109-1,400009,大雅清泉崗郵局,臺中9支,臺中市,大雅區,忠義里仁愛路100號,臺中市大雅區忠義里仁愛路100號,24.234471,120.620885
41145,002110-3,400010,太平長億郵局,臺中10支,臺中市,太平區,長億一街53、55號,臺中市太平區長億一街53、55號,24.120029,120.719867
41281,002111-7,400011,大里仁化郵局,臺中11支,臺中市,大里區,至善路30號,臺中市大里區至善路30號,24.093309,120.703284
41170,002113-4,400013,太平坪林郵局,臺中13支,臺中市,太平區,中山路一段325、327號,臺中市太平區中山路一段325、327號,24.145078,120.734194
41148,002114-8,400014,太平竹仔坑郵局,臺中14支,臺中市,太平區,光興路517、519號,臺中市太平區光興路517、519號,24.105224,120.728977
40445,002115-1,400015,臺中育才郵局,臺中15支,臺中市,北區,三民路三段140號,臺中市北區三民路三段140號,24.151136,120.684779
40342,002116-5,400016,臺中法院郵局,臺中16支,臺中市,西區,自由路一段91號(臺中地方法院內),臺中市西區自由路一段91號(臺中地方法院內),24.134757,120.67639
40249,002117-9,400017,臺中國光路郵局,臺中17支,臺中市,南區,國光路297號,臺中市南區國光路297號,24.122583,120.679448
40046,002118-2,400018,臺中公園路郵局,臺中18支,臺中市,中區,公園路4號,臺中市中區公園路4號,24.142064,120.684842
40863,002119-6,400019,臺中南屯路郵局,臺中19支,臺中市,南屯區,南屯路二段405號,臺中市南屯區南屯路二段405號,24.138258,120.643508
40252,002120-8,400020,臺中福平里郵局,臺中20支,臺中市,南區,復興路二段169號,臺中市南區復興路二段169號,24.127301,120.665832
41270,002121-1,400021,大里郵局,臺中21支,臺中市,大里區,中興路二段212號,臺中市大里區中興路二段212號,24.10303,120.68878
42853,002122-5,400022,大雅郵局,臺中22支,臺中市,大雅區,中清東路177號,臺中市大雅區中清東路177號,24.223412,120.647701
40142,002123-9,400023,臺中力行路郵局,臺中23支,臺中市,東區,力行路52巷5號,臺中市東區力行路52巷5號,24.15136,120.695706
40153,002124-2,400024,臺中旱溪郵局,臺中24支,臺中市,東區,一心街403號,臺中市東區一心街403號,24.140707,120.702229
40744,002125-6,400025,臺中逢甲郵局,臺中25支,臺中市,西屯區,河南路二段268號,臺中市西屯區河南路二段268號,24.175273,120.649133
40455,002126-0,400026,臺中雙十路郵局,臺中26支,臺中市,北區,雙十路二段119號,臺中市北區雙十路二段119號,24.157146,120.690389
40677,002127-3,400027,臺中水湳郵局,臺中27支,臺中市,北屯區,四平路1號,臺中市北屯區四平路1號,24.177527,120.669698
41270,002128-7,400028,大里內新郵局,臺中28支,臺中市,大里區,中興路二段520號,臺中市大里區中興路二段520號,24.112363,120.68997
40851,002129-1,400029,臺中嶺東郵局,臺中29支,臺中市,南屯區,建功路50號,臺中市南屯區建功路50號,24.135821,120.610482
40760,002130-2,400030,臺中西屯郵局,臺中30支,臺中市,西屯區,黎明路三段130號,臺中市西屯區黎明路三段130號,24.176707,120.637655
40458,002131-6,400031,臺中五權路郵局,臺中31支,臺中市,北區,五權路311、313號,臺中市北區五權路311、313號,24.151951,120.678628
41271,002132-0,400032,大里草湖郵局,臺中32支,臺中市,大里區,中興路一段298-3號,臺中市大里區中興路一段298-3號,24.089057,120.695072
40150,002133-3,400033,臺中大智郵局,臺中33支,臺中市,東區,建成路676、678號,臺中市東區建成路676、678號,24.131643,120.689759
41167,002134-7,400034,太平郵局,臺中34支,臺中市,太平區,中興東路25號,臺中市太平區中興東路25號,24.129984,120.719692
40646,002135-1,400035,臺中北屯郵局,臺中35支,臺中市,北屯區,進化北路37-1號,臺中市北屯區進化北路37-1號,24.162781,120.691116
40878,002136-4,400036,臺中東興路郵局,臺中36支,臺中市,南屯區,東興路二段186號,臺中市南屯區東興路二段186號,24.141374,120.653165
40441,002137-8,400037,臺中漢口路郵局,臺中37支,臺中市,北區,漢口路三段189號,臺中市北區漢口路三段189號,24.166978,120.671302
40256,002138-1,400038,臺中樹仔腳郵局,臺中38支,臺中市,南區,復興路一段236號,臺中市南區復興路一段236號,24.114469,120.654717
40680,002139-5,400039,臺中四張犁郵局,臺中39支,臺中市,北屯區,豐樂路二段162號,臺中市北屯區豐樂路二段162號,24.194794,120.679833
40360,002140-7,400040,臺中公益路郵局,臺中40支,臺中市,西區,公益路193號,臺中市西區公益路193號,24.15076,120.660769
40645,002141-1,400041,臺中大坑口郵局,臺中41支,臺中市,北屯區,東山路一段38-1號,臺中市北屯區東山路一段38-1號,24.170122,120.699346
40141,002142-4,400042,臺中進化路郵局,臺中42支,臺中市,東區,進化路184、186號,臺中市東區進化路184、186號,24.146847,120.694551
41171,002143-8,400043,太平宜欣郵局,臺中43支,臺中市,太平區,中山路四段27號,臺中市太平區中山路四段27號,24.149767,120.712558
40746,002144-1,400044,臺中何厝郵局,臺中44支,臺中市,西屯區,青海路一段83號,臺中市西屯區青海路一段83號,24.16464,120.654197
40255,002145-5,400045,臺中南和路郵局,臺中45支,臺中市,南區,南和路42、44號,臺中市南區南和路42、44號,24.116148,120.668968
40755,002146-9,400046,臺中工業區郵局,臺中46支,臺中市,西屯區,工業區六路10號,臺中市西屯區工業區六路10號,24.16955,120.606564
40844,002147-2,400047,臺中黎明郵局,臺中47支,臺中市,南屯區,博愛街80巷49號,臺中市南屯區博愛街80巷49號,24.153499,120.633097
40678,002149-0,400049,臺中中清路郵局,臺中49支,臺中市,北屯區,中清路二段830號,臺中市北屯區中清路二段830號,24.186736,120.66362
40344,002150-1,400050,臺中大全街郵局,臺中50支,臺中市,西區,大全街42、44、46號,臺中市西區大全街42、44、46號,24.136201,120.671105
40705,002152-9,400052,臺中榮總郵局,臺中52支,臺中市,西屯區,臺灣大道四段1650號(台中榮總內),臺中市西屯區臺灣大道四段1650號(台中榮總內),24.183986,120.604831
40461,002153-2,400053,臺中淡溝郵局,臺中53支,臺中市,北區,民權路365號,臺中市北區民權路365號,24.157051,120.670349
40644,002154-6,400054,臺中軍功郵局,臺中54支,臺中市,北屯區,環中東路二段253號，255號,臺中市北屯區環中東路二段253號，255號,24.175633,120.721148
40459,002155-0,400055,臺中健行路郵局,臺中55支,臺中市,北區,健行路190號,臺中市北區健行路190號,24.159201,120.685963
41261,002157-7,400057,大里永隆郵局,臺中57支,臺中市,大里區,永隆一街82號,臺中市大里區永隆一街82號,24.105263,120.678688
41474,002159-4,400059,烏日明道郵局,臺中59支,臺中市,烏日區,仁德村信義街100號,臺中市烏日區仁德村信義街100號,24.105478,120.640481
41143,002160-6,400060,太平永豐路郵局,臺中60支,臺中市,太平區,永豐路338號,臺中市太平區永豐路338號,24.113913,120.703534
40763,002161-0,400061,臺中永安郵局,臺中61支,臺中市,西屯區,永安里西屯路三段166-80號,臺中市西屯區永安里西屯路三段166-80號,24.190566,120.612233
40666,002163-7,400063,臺中文心路郵局,臺中63支,臺中市,北屯區,文心路四段752號,臺中市北屯區文心路四段752號,24.171626,120.688528
40358,002165-4,400065,臺中英才郵局,臺中65支,臺中市,西區,民生路200號,臺中市西區民生路200號,24.144677,120.665568
40675,002166-8,400066,臺中松竹郵局,臺中66支,臺中市,北屯區,松竹北路110號,臺中市北屯區松竹北路110號,24.185402,120.699294
40759,002167-1,400067,臺中大隆路郵局,臺中67支,臺中市,西屯區,大隆路60、62號,臺中市西屯區大隆路60、62號,24.156464,120.652786
41466,002168-5,400068,烏日溪壩郵局,臺中68支,臺中市,烏日區,溪南路2段372號,臺中市烏日區溪南路2段372號,24.06135,120.643324
40764,002169-9,400069,臺中福安郵局,臺中69支,臺中市,西屯區,福順路318號,臺中市西屯區福順路318號,24.183423,120.618611
40867,002170-1,400070,臺中向上郵局,臺中70支,臺中市,南屯區,向上路二段199號,臺中市南屯區向上路二段199號,24.146617,120.641333
42850,002171-4,400071,大雅馬岡厝郵局,臺中71支,臺中市,大雅區,西寶里昌平路四段82號,臺中市大雅區西寶里昌平路四段82號,24.217484,120.668123
42056,014100-9,420000,豐原郵局,臺中72支,臺中市,豐原區,中正路298號,臺中市豐原區中正路298號,24.251509,120.715018
42955,014101-2,420001,神岡郵局,臺中73支,臺中市,神岡區,神岡路4號,臺中市神岡區神岡路4號,24.258162,120.662473
42261,014102-6,420002,石岡郵局,臺中74支,臺中市,石岡區,石岡街86號,臺中市石岡區石岡街86號,24.276175,120.775203
42047,014103-0,420003,豐原中山路郵局,臺中75支,臺中市,豐原區,大明路12號,臺中市豐原區大明路12號,24.23967,120.710812
42060,014104-3,420004,豐原三民路郵局,臺中76支,臺中市,豐原區,三民路108號,臺中市豐原區三民路108號,24.253711,120.720005
43343,014105-7,420005,沙鹿北勢郵局,臺中77支,臺中市,沙鹿區,東晉路253號,臺中市沙鹿區東晉路253號,24.223036,120.570295
42954,014106-1,420006,神岡圳堵郵局,臺 中78支,臺中市,神岡區,神清路273號,臺中市神岡區神清路273號,24.271074,120.656725
42051,014107-4,420007,豐原南陽郵局,臺中79支,臺中市,豐原區,圓環東路402號,臺中市豐原區圓環東路402號,24.245209,120.724892
42085,014108-8,420008,豐原翁子郵局,臺中80支,臺中市,豐原區,豐勢路一段576、578號,臺中市豐原區豐勢路一段576、578號,24.259594,120.734305
42943,014109-1,420009,神岡社口郵局,臺中81支,臺中市,神岡區,中山路611號,臺中市神岡區中山路611號,24.246794,120.682132
42079,014111-7,420011,豐原葫蘆墩郵局,臺中83支,臺中市,豐原區,豐原大道七段25號,臺中市豐原區豐原大道七段25號,24.263908,120.719533
42950,014112-1,420012,神岡岸裡郵局,臺中84支,臺中市,神岡區,中山路49號,臺中市神岡區中山路49號,24.248572,120.698061
42080,014113-4,420013,豐原水源郵局,臺中85支,臺中市,豐原區,水源路594-2號,臺中市豐原區水源路594-2號,24.255178,120.72882
42151,014114-8,420014,后里郵局,臺中86支,臺中市,后里區,公安路77號,臺中市后里區公安路77號,24.304657,120.710849
42945,014115-1,420015,神岡豐洲郵局,臺中87支,臺中市,神岡區,豐洲路359號,臺中市神岡區豐洲路359號,24.260942,120.705954
42141,014116-5,420016,后里義里郵局,臺中88支,臺中市,后里區,甲后路一段219號,臺中市后里區甲后路一段219號,24.309037,120.727787
42146,014117-9,420017,后里月眉郵局,臺中89支,臺中市,后里區,甲后路二段377號,臺中市后里區甲后路二段377號,24.313543,120.69378
42343,014118-2,420018,東勢郵局,臺中90支,臺中市,東勢區,中山路43號,臺中市東勢區中山路43號,24.257139,120.83004
42444,014119-6,420019,和平谷關郵局,臺中91支,臺中市,和平區,博愛里東關路一段106號,臺中市和平區博愛里東關路一段106號,24.203138,121.006226
42645,014120-8,420020,新社中興嶺郵局,臺中92支,臺中市,新社區,中興嶺170-2號,臺中市新社區中興嶺170-2號,24.205695,120.79436
42354,014121-1,420021,東勢中嵙口郵局,臺中93支,臺中市,東勢區,豐勢路188、190號,臺中市東勢區豐勢路188、190號,24.250418,120.83052
42447,014122-5,420022,和平梨山郵局,臺中94支,臺中市,和平區,梨山里中正路89號,臺中市和平區梨山里中正路89號,24.254175,121.25206
42641,014123-9,420023,新社郵局,臺中95支,臺中市,新社區,中和街五段1號,臺中市新社區中和街五段1號,24.247862,120.808768
42082,014124-2,420024,豐原鐮村郵局,臺中96支,臺中市,豐原區,鐮村路169號,臺中市豐原區鐮村路169號,24.231247,120.724462
42441,014125-6,420025,和平郵局,臺中97支,臺中市,和平區,南勢里東關路三段160-9號,臺中市和平區南勢里東關路三段160-9號,24.174806,120.88299
42751,014126-0,420026,潭子郵局,臺中98支,臺中市,潭子區,潭興路三段42號,臺中市潭子區潭興路三段42號,24.211706,120.703732
42760,014127-3,420027,潭子加工區郵局,臺中99支,臺中市,潭子區,南二路1-1號,臺中市潭子區南二路1-1號,24.216745,120.705258
42755,014128-7,420028,潭子頭家厝郵局,臺中100支,臺中市,潭子區,中山路一段25號,臺中市潭子區中山路一段25號,24.191015,120.70237
42758,014129-1,420029,潭子東寶郵局,臺中101支,臺中市,潭子區,昌平路三段116號,臺中市潭子區昌平路三段116號,24.203303,120.674594
42754,014130-2,420030,潭子栗林郵局,臺中102支,臺中市,潭子區,中山路三段334號,臺中市潭子區中山路三段334號,24.231515,120.709045
42751,014131-6,420031,潭子潭北郵局,臺中103支,臺中市,潭子區,潭子街三段55號,臺中市潭子區潭子街三段55號,24.214579,120.706452
43748,014132-0,420032,大甲郵局,臺中104支,臺中市,大甲區,新政路1號,臺中市大甲區新政路1號,24.347418,120.62748
43951,014133-3,420033,大安郵局,臺中105支,臺中市,大安區,中山南路343號,臺中市大安區中山南路343號,24.346358,120.586033
43741,014134-7,420034,大甲廟口郵局,臺中106支,臺中市,大甲區,順天路159號,臺中市大甲區順天路159號,24.345132,120.622263
43856,014135-1,420035,外埔郵局,臺中107支,臺中市,外埔區,甲后路三段923號,臺中市外埔區甲后路三段923號,24.330192,120.654862
43769,014136-4,420036,大甲日南郵局,臺中108支,臺中市,大甲區,中山路二段233號,臺中市大甲區中山路二段233號,24.381275,120.655142
43767,014137-8,420037,大甲幼獅郵局,臺中109支,臺中市,大甲區,幼獅路45號,臺中市大甲區幼獅路45號,24.405303,120.652036
43749,014138-1,420038,大甲庄美郵局,臺中110支,臺中市,大甲區,經國路768號,臺中市大甲區經國路768號,24.35478,120.619219
43542,014139-5,420039,臺中港郵局,臺中111支,臺中市,梧棲區,四維路129號,臺中市梧棲區四維路129號,24.262285,120.537144
43350,014140-7,420040,沙鹿郵局,臺中112支,臺中市,沙鹿區,中山路341號,臺中市沙鹿區中山路341號,24.239262,120.559878
43653,014141-1,420041,清水郵局,臺中113支,臺中市,清水區,中山路124號,臺中市清水區中山路124號,24.268078,120.575275
43541,014142-4,420042,梧棲郵局,臺中114支,臺中市,梧棲區,梧棲路173號,臺中市梧棲區梧棲路173號,24.257617,120.5297
43452,014143-8,420043,龍井郵局,臺中115支,臺中市,龍井區,龍新路163號,臺中市龍井區龍新路163號,24.196737,120.547048
43344,014144-1,420044,沙鹿鹿寮郵局,臺中116支,臺中市,沙鹿區,中山路584-1號,臺中市沙鹿區中山路584-1號,24.252905,120.5676
43448,014145-5,420045,龍井新庄郵局,臺中117支,臺中市,龍井區,遊園南路171號,臺中市龍井區遊園南路171號,24.182433,120.58438
43444,014146-9,420046,龍井茄投郵局,臺中118支,臺中市,龍井區,舊車路101之2號,臺中市龍井區舊車路101之2號,24.183519,120.530797
43301,014147-2,420047,靜宜大學郵局,臺中119支,臺中市,沙鹿區,台灣大道七段200號,臺中市沙鹿區台灣大道七段200號,24.228276,120.579894
43648,014148-6,420048,清水南社郵局,臺中120支,臺中市,清水區,忠貞路39號,臺中市清水區忠貞路39號,24.271932,120.558199
43646,014149-0,420049,清水田寮郵局,臺中121支,臺中市,清水區,高美路162-14號,臺中市清水區高美路162-14號,24.281499,120.575081
43545,014151-5,420051,梧棲大庄郵局,臺中123支,臺中市,梧棲區,中央路一段921-2號,臺中市梧棲區中央路一段921-2號,24.24831,120.538378
43242,014152-9,420052,大肚郵局,臺中124支,臺中市,大肚區,沙田路二段666號,臺中市大肚區沙田路二段666號,24.15152,120.54552
43246,014153-2,420053,大肚追分郵局,臺中125支,臺中市,大肚區,沙田路一段564-5號,臺中市大肚區沙田路一段564-5號,24.125321,120.561717
43250,014154-6,420054,大肚蔗?郵局,臺中126支,臺中市,大肚區,遊園路二段65、67號,臺中市大肚區遊園路二段65、67號,24.170391,120.579588
43451,014155-0,420055,龍井龍津郵局,臺中127支,臺中市,龍井區,中央路一段246、248號,臺中市龍井區中央路一段246、248號,24.202584,120.523537
70401,003100-5,704000,臺南成功路郵局,臺南901支,臺南市,北區,成功路6、8號,臺南市北區成功路6、8號,22.997692,120.210563
70242,003101-9,704001,臺南西門路郵局,臺南1支,臺南市,南區,西門路一段681號,臺南市南區西門路一段681號,22.986728,120.197363
70052,003102-2,704002,臺南水交社郵局,臺南2支,臺南市,中西區,健康路一段260號,臺南市中西區健康路一段260號,22.981478,120.204368
70044,003103-6,704003,臺南興華街郵局,臺南3支,臺南市,中西區,興華街37號,臺南市中西區興華街37號,22.992598,120.21128
70841,003104-0,704004,臺南安平郵局,臺南4支,臺南市,安平區,安北路125號,臺南市安平區安北路125號,23.00257,120.163294
70048,003105-3,704005,臺南中正路郵局,臺南5支,臺南市,中西區,中正路42號,臺南市中西區中正路42號,22.992156,120.202212
71754,003106-7,704006,仁德車路墘郵局,臺南6支,臺南市,仁德區,中正路一段32號,臺南市仁德區中正路一段32號,22.918956,120.227319
70101,003107-1,704007,成功大學郵局,臺南7支,臺南市,東區,大學路１號（光復校區內，近大學路西段校門口）,臺南市東區大學路１號（光復校區內，近大學路西段校門口）,22.997474,120.217129
71052,003108-4,704008,永康網寮郵局,臺南8支,臺南市,永康區,小東路481、483號,臺南市永康區小東路481、483號,22.998598,120.235435
71143,003109-8,704009,歸仁郵局,臺南9支,臺南市,歸仁區,中山路一段637號,臺南市歸仁區中山路一段637號,22.966441,120.294648
71089,003110-0,704010,永康郵局,臺南10支,臺南市,永康區,中山路78號,臺南市永康區中山路78號,23.02812,120.256792
71067,003111-3,704011,永康六甲頂郵局,臺南11支,臺南市,永康區,中正南路160號,臺南市永康區中正南路160號,23.022539,120.217094
70173,003112-7,704012,臺南德高厝郵局,臺南12支,臺南市,東區,崇德路678號,臺南市東區崇德路678號,22.967322,120.227413
70060,003113-1,704013,臺南永樂郵局,臺南13支,臺南市,中西區,民族路三段282號,臺南市中西區民族路三段282號,23.000201,120.192423
70055,003114-4,704014,臺南友愛街郵局,臺南14支,臺南市,中西區,友愛街318號,臺南市中西區友愛街318號,22.992712,120.193749
70049,003115-8,704015,臺南南門路郵局,臺南15支,臺南市,中西區,南門路93號,臺南市中西區南門路93號,22.988728,120.204662
71757,003116-1,704016,仁德太子郵局,臺南16支,臺南市,仁德區,土庫路2號,臺南市仁德區土庫路2號,22.991146,120.260394
70448,003117-5,704017,臺南西華郵局,臺南17支,臺南市,北區,公園路176-1號,臺南市北區公園路176-1號,22.99975,120.208032
70141,003118-9,704018,臺南東城郵局,臺南18支,臺南市,東區,府連路433、435號,臺南市東區府連路433、435號,22.986275,120.217035
70456,003119-2,704019,臺南開元路郵局,臺南19支,臺南市,北區,開元路162號,臺南市北區開元路162號,23.007085,120.219758
70263,003120-4,704020,臺南大同路郵局,臺南20支,臺南市,南區,大同路二段410號,臺南市南區大同路二段410號,22.974457,120.214181
71078,003121-8,704021,永康二王郵局,臺南21支,臺南市,永康區,中山南路363號,臺南市永康區中山南路363號,23.020788,120.245768
70042,003122-1,704022,臺南普濟郵局,臺南22支,臺南市,中西區,西門路二段366號,臺南市中西區西門路二段366號,22.9983,120.20061
70258,003123-5,704023,臺南灣裡郵局,臺南23支,臺南市,南區,灣裡路67號,臺南市南區灣裡路67號,22.932275,120.180991
71746,003124-9,704024,仁德二空郵局,臺南24支,臺南市,仁德區,二空路65號,臺南市仁德區二空路65號,22.9586,120.223192
70447,003125-2,704025,臺南大光郵局,臺南25支,臺南市,北區,長榮路五段266號,臺南市北區長榮路五段266號,23.012843,120.218096
70157,003126-6,704026,臺南東門郵局,臺南26支,臺南市,東區,東門路二段216號,臺南市東區東門路二段216號,22.98488,120.223883
71749,003127-0,704027,仁德郵局,臺南27支,臺南市,仁德區,中正路二段1118號,臺南市仁德區中正路二段1118號,22.969735,120.252186
70160,003128-3,704028,臺南東寧路郵局,臺南28支,臺南市,東區,東寧路323號,臺南市東區東寧路323號,22.990309,120.227612
70445,003129-7,704029,臺南北小北郵局,臺南29支,臺南市,北區,西門路四段482號,臺南市北區西門路四段482號,23.016531,120.211184
71077,003130-9,704030,永康大灣郵局,臺南30支,臺南市,永康區,民族路244號,臺南市永康區民族路244號,23.00627,120.2689
70959,003131-2,704031,臺南和順郵局,臺南31支,臺南市,安南區,安和路5段119號,臺南市安南區安和路5段119號,23.065486,120.21822
71072,003132-6,704032,永康鹽行郵局,臺南32支,臺南市,永康區,中正北路79號,臺南市永康區中正北路79號,23.041732,120.239937
70251,003133-0,704033,臺南鹽埕郵局,臺南33支,臺南市,南區,金華路一段292號,臺南市南區金華路一段292號,22.968416,120.190456
70941,003134-3,704034,臺南安順郵局,臺南34支,臺南市,安南區,安和路一段430號,臺南市安南區安和路一段430號,23.034823,120.213189
70268,003135-7,704035,臺南新義郵局,臺南35支,臺南市,南區,安平工業區新義路1號,臺南市南區安平工業區新義路1號,22.969979,120.183143
70960,003136-1,704036,臺南安南郵局,臺南36支,臺南市,安南區,安中路三段106號,臺南市安南區安中路三段106號,23.047828,120.181204
70262,003137-4,704037,臺南金華郵局,臺南37支,臺南市,南區,健康路二段182號,臺南市南區健康路二段182號,22.981644,120.192763
70950,003138-8,704038,臺南海佃郵局,臺南38支,臺南市,安南區,國安街8號,臺南市安南區國安街8號,23.022882,120.191449
70948,003139-1,704039,臺南土城郵局,臺南39支,臺南市,安南區,安中路六段712號,臺南市安南區安中路六段712號,23.065031,120.128419
70154,003140-3,704040,臺南小東郵局,臺南40支,臺南市,東區,東和路45、47、49號,臺南市東區東和路45、47、49號,22.998582,120.22945
71079,003142-1,704042,永康大橋郵局,臺南42支,臺南市,永康區,中華路473號1F,臺南市永康區中華路473號1F,23.011241,120.231838
71087,003143-4,704043,永康崑山郵局,臺南43支,臺南市,永康區,永大路二段3號,臺南市永康區永大路二段3號,23.000759,120.259367
71743,003145-1,704045,仁德後壁厝郵局,臺南45支,臺南市,仁德區,中正路二段417、419號,臺南市仁德區中正路二段417、419號,22.954028,120.252016
71041,003146-5,704046,永康王行郵局,臺南46支,臺南市,永康區,永康工業區環工路6號,臺南市永康區永康工業區環工路6號,23.04912,120.274457
70943,003147-9,704047,臺南原佃郵局,臺南47支,臺南市,安南區,怡安路二段462號,臺南市安南區怡安路二段462號,23.044386,120.197446
70451,003148-2,704048,臺南文元郵局,臺南48支,臺南市,北區,文成路765號,臺南市北區文成路765號,23.012168,120.195173
70162,003149-6,704049,臺南虎尾寮郵局,臺南49支,臺南市,東區,自由路三段386號,臺南市東區自由路三段386號,22.982543,120.237291
71143,003150-8,704050,歸仁南保郵局,臺南50支,臺南市,歸仁區,中山路一段637號,臺南市歸仁區中山路一段637號,22.966441,120.294648
71845,003159-1,704059,關廟郵局,臺南59支,臺南市,關廟區,中央路222號,臺南市關廟區中央路222號,22.960795,120.329195
71942,003160-2,704060,龍崎郵局,臺南60支,臺南市,龍崎區,崎頂里新市仔186號,臺南市龍崎區崎頂里新市仔186號,22.965292,120.360434
71846,003161-6,704061,關廟文衡路郵局,臺南61支,臺南市,關廟區,文衡路20號,臺南市關廟區文衡路20號,22.960814,120.326175
70848,003162-0,704062,臺南新南郵局,臺南62支,臺南市,安平區,永華三街6號,臺南市安平區永華三街6號,22.99066,120.181603
70802,003163-3,704063,臺南地方法院郵局,臺南63支,臺南市,安平區,健康路三段308號,臺南市安平區健康路三段308號,22.985147,120.171462
70843,003164-7,704064,臺南育平郵局,臺南64支,臺南市,安平區,育平路333號,臺南市安平區育平路333號,22.992991,120.167358
80027,004100-1,800000,新興郵局,高雄901支,高雄市,新興區,中正三路177、179號,高雄市新興區中正三路177、179號,22.631026,120.303875
81356,004101-5,800001,左營華夏路郵局,高雄1支,高雄市,左營區,華夏路390號,高雄市左營區華夏路390號,22.673093,120.29867
80249,004102-9,800002,苓雅郵局,高雄2支,高雄市,苓雅區,成功一路134號,高雄市苓雅區成功一路134號,22.614658,120.297704
80542,004103-2,800003,旗津郵局,高雄3支,高雄市,旗津區,中洲三路817號,高雄市旗津區中洲三路817號,22.612494,120.26939
80344,004105-0,800005,鹽埕郵局,高雄5支,高雄市,鹽埕區,五福四路133號,高雄市鹽埕區五福四路133號,22.623054,120.284289
81166,004106-3,800006,楠梓郵局,高雄6支,高雄市,楠梓區,楠梓新路247號,高雄市楠梓區楠梓新路247號,22.728343,120.325811
81346,004107-7,800007,左營郵局,高雄7支,高雄市,左營區,實踐路43號,高雄市左營區實踐路43號,22.69017,120.293529
80748,004108-1,800008,高雄站前郵局,高雄8支,高雄市,三民區,建國三路2-2號,高雄市三民區建國三路2-2號,22.638405,120.301065
80443,004109-4,800009,鼓山郵局,高雄9支,高雄市,鼓山區,臨海二路17號,高雄市鼓山區臨海二路17號,22.621805,120.273815
80141,004110-6,800010,前金郵局,高雄10支,高雄市,前金區,六合二路147號,高雄市前金區六合二路147號,22.631011,120.296076
80448,004111-0,800011,高雄內惟郵局,高雄11支,高雄市,鼓山區,九如四路1020、1022號,高雄市鼓山區九如四路1020、1022號,22.655576,120.279272
81465,004112-3,800012,仁武臺塑郵局,高雄12支,高雄市,仁武區,水管路100-1號,高雄市仁武區水管路100-1號,22.70588,120.336195
81347,004113-7,800013,左營南站郵局,高雄13支,高雄市,左營區,左營大路75號,高雄市左營區左營大路75號,22.682146,120.288149
81355,004114-1,800014,左營果貿郵局,高雄14支,高雄市,左營區,翠峰路2號,高雄市左營區翠峰路2號,22.671351,120.289979
80144,004116-8,800016,高雄社東郵局,高雄16支,高雄市,前金區,自強二路104之1號,高雄市前金區自強二路104之1號,22.626285,120.295049
80758,004117-1,800017,高雄德智郵局,高雄17支,高雄市,三民區,熱河一街84、86號,高雄市三民區熱河一街84、86號,22.643484,120.311184
80662,004118-5,800018,前鎮郵局,高雄18支,高雄市,前鎮區,前鎮街92號,高雄市前鎮區前鎮街92號,22.588881,120.306298
80203,004119-9,800019,高雄市府郵局,高雄19支,高雄市,苓雅區,四維三路2號(市政大樓1樓),高雄市苓雅區四維三路2號(市政大樓1樓),22.621206,120.311829
80445,004120-1,800020,高雄鼓岩郵局,高雄20支,高雄市,鼓山區,鼓山二路166-12、13號,高雄市鼓山區鼓山二路166-12、13號,22.637285,120.280834
80655,004121-4,800021,高雄廣澤郵局,高雄21支,高雄市,前鎮區,三多三路139號,高雄市前鎮區三多三路139號,22.615817,120.310576
80341,004123-1,800023,高雄府北郵局,高雄23支,高雄市,鹽埕區,七賢二路470號,高雄市鹽埕區七賢二路470號,22.629574,120.284484
80749,004124-5,800024,高雄三塊厝郵局,高雄24支,高雄市,三民區,中華三路270號,高雄市三民區中華三路270號,22.635601,120.293602
81142,004125-9,800025,楠梓莒光郵局,高雄25支,高雄市,楠梓區,新昌街53、55號,高雄市楠梓區新昌街53、55號,22.709847,120.298785
80681,004126-2,800026,前鎮加工區郵局,高雄26支,高雄市,前鎮區,中四路1號(前鎮加工區內),高雄市前鎮區中四路1號(前鎮加工區內),22.601249,120.291257
80053,004127-6,800027,高雄青年郵局,高雄27支,高雄市,新興區,復興二路171號,高雄市新興區復興二路171號,22.625092,120.3083
80778,004128-0,800028,高雄灣仔內郵局,高雄28支,高雄市,三民區,建工路679、681號,高雄市三民區建工路679、681號,22.647881,120.317441
81242,004129-3,800029,小港郵局,高雄29支,高雄市,小港區,小港一街1號,高雄市小港區小港一街1號,22.564161,120.336886
80201,004130-5,800030,高雄師大郵局,高雄30支,高雄市,苓雅區,和平一路116號(高雄師範大學內),高雄市苓雅區和平一路116號(高雄師範大學內),22.622847,120.316223
80745,004132-2,800032,高雄九如二路郵局,高雄32支,高雄市,三民區,九如二路661、663號,高雄市三民區九如二路661、663號,22.641725,120.293808
80282,004133-6,800033,高雄五塊厝郵局,高雄33支,高雄市,苓雅區,三多一路237號,高雄市苓雅區三多一路237號,22.622269,120.330419
81547,004134-0,800034,大社郵局,高雄34支,高雄市,大社區,自強街9號,高雄市大社區自強街9號,22.731271,120.346966
81148,004135-3,800035,楠梓藍田郵局,高雄35支,高雄市,楠梓區,藍田里藍昌路430號,高雄市楠梓區藍田里藍昌路430號,22.730362,120.292216
80654,004136-7,800036,高雄西甲郵局,高雄36支,高雄市,前鎮區,復興三路94號,高雄市前鎮區復興三路94號,22.609671,120.309957
81252,004137-1,800037,小港機場郵局,高雄37支,高雄市,小港區,中山四路2號(小港國際機場內),高雄市小港區中山四路2號(小港國際機場內),22.570539,120.344373
80673,004138-4,800038,高雄草衙郵局,高雄38支,高雄市,前鎮區,草衙一路78、80號,高雄市前鎮區草衙一路78、80號,22.583594,120.322524
80645,004139-8,800039,高雄籬仔內郵局,高雄39支,高雄市,前鎮區,瑞隆路482號,高雄市前鎮區瑞隆路482號,22.605429,120.328816
80284,004140-0,800040,高雄正言郵局,高雄40支,高雄市,苓雅區,中正一路322、324號,高雄市苓雅區中正一路322、324號,22.62982,120.326759
80053,004141-3,800041,高雄順昌郵局,高雄41支,高雄市,新興區,七賢一路104、106號,高雄市新興區七賢一路104、106號,22.622847,120.316223
80266,004142-7,800042,高雄林華郵局,高雄42支,高雄市,苓雅區,三多二路249號,高雄市苓雅區三多二路249號,22.613927,120.321469
81149,004143-1,800043,楠梓右昌郵局,高雄43支,高雄市,楠梓區,右昌街347號,高雄市楠梓區右昌街347號,22.714648,120.288851
80666,004144-4,800044,高雄佛公郵局,高雄44支,高雄市,前鎮區,后安路147號,高雄市前鎮區后安路147號,22.573539,120.322705
81261,004145-8,800045,高雄大林蒲郵局,高雄45支,高雄市,小港區,鳳林路82號,高雄市小港區鳳林路82號,22.526486,120.346567
80448,004146-1,800046,高雄前峰郵局,高雄46支,高雄市,鼓山區,九如四路2008、2010號,高雄市鼓山區九如四路2008、2010號,22.668007,120.286245
81233,004147-5,800047,高雄中鋼郵局,高雄47支,高雄市,小港區,中鋼路1號〈中鋼公司福利社內〉,高雄市小港區中鋼路1號〈中鋼公司福利社內〉,22.553055,120.348606
80763,004148-9,800048,高雄民族社區郵局,高雄48支,高雄市,三民區,九如一路952號,高雄市三民區九如一路952號,22.640334,120.316519
80757,004149-2,800049,高雄站後郵局,高雄49支,高雄市,三民區,博愛一路28號,高雄市三民區博愛一路28號,22.641994,120.303193
80787,004150-4,800050,高雄大順郵局,高雄50支,高雄市,三民區,大順二路207號,高雄市三民區大順二路207號,22.643554,120.326315
81234,004151-8,800051,高雄台船郵局,高雄51支,高雄市,小港區,中鋼路3號(台船公司內),高雄市小港區中鋼路3號(台船公司內),22.553813,120.347328
81451,004152-1,800052,仁武郵局,高雄52支,高雄市,仁武區,仁武里中正路115號,高雄市仁武區仁武里中正路115號,22.701714,120.348562
80776,004153-5,800053,高雄建工郵局,高雄53支,高雄市,三民區,大昌二路517號,高雄市三民區大昌二路517號,22.651252,120.330422
80757,004154-9,800054,高雄博愛路郵局,高雄54支,高雄市,三民區,博愛一路372號1樓,高雄市三民區博愛一路372號1樓,22.650961,120.303788
81358,004155-2,800055,左營新莊仔郵局,高雄55支,高雄市,左營區,富民路356號,高雄市左營區富民路356號,22.664951,120.305293
80792,004156-6,800056,高雄鼎泰郵局,高雄56支,高雄市,三民區,民族一路519號,高雄市三民區民族一路519號,22.66516,120.316197
81345,004157-0,800057,海軍官校郵局,高雄57支,高雄市,楠梓區,軍校路669號,高雄市楠梓區軍校路669號,22.704633,120.292333
80656,004158-3,800058,高雄英德街郵局,高雄58支,高雄市,前鎮區,英德街149號,高雄市前鎮區英德街149號,22.613927,120.321469
80424,004159-7,800059,中山大學郵局,高雄59支,高雄市,鼓山區,蓮海路70號(西子灣國立中山大學內),高雄市鼓山區蓮海路70號(西子灣國立中山大學內),22.628043,120.265359
80289,004160-9,800060,高雄武廟郵局,高雄60支,高雄市,苓雅區,武廟路83號,高雄市苓雅區武廟路83號,22.630508,120.329787
80768,004161-2,800061,高雄民壯郵局,高雄61支,高雄市,三民區,民壯路16、18、20、22號,高雄市三民區民壯路16、18、20、22號,22.638914,120.340743
81257,004162-6,800062,高雄二苓郵局,高雄62支,高雄市,小港區,中山四路7、9、11號,高雄市小港區中山四路7、9、11號,22.569241,120.347673
80785,004163-0,800063,高雄大昌郵局,高雄63支,高雄市,三民區,大昌一路258號,高雄市三民區大昌一路258號,22.657046,120.321993
80253,004164-3,800064,高雄文化中心郵局,高雄64支,高雄市,苓雅區,光華一路148-30號,高雄市苓雅區光華一路148-30號,22.622847,120.316223
80448,004165-7,800065,高雄民強郵局,高雄65支,高雄市,鼓山區,九如四路636、638號,高雄市鼓山區九如四路636、638號,22.648974,120.279255
81156,004166-1,800066,楠梓後勁郵局,高雄66支,高雄市,楠梓區,後昌路128號,高雄市楠梓區後昌路128號,22.718147,120.310237
80774,004167-4,800067,高雄義民郵局,高雄67支,高雄市,三民區,大豐二路203號,高雄市三民區大豐二路203號,22.645948,120.330065
80457,004168-8,800068,高雄瑞豐郵局,高雄68支,高雄市,鼓山區,中華一路316之3號,高雄市鼓山區中華一路316之3號,22.664833,120.291959
80044,004169-1,800069,高雄新田郵局,高雄69支,高雄市,新興區,新田路133號,高雄市新興區新田路133號,22.622213,120.303871
81152,004170-3,800070,楠梓亞洲城郵局,高雄70支,高雄市,楠梓區,壽民路222號,高雄市楠梓區壽民路222號,22.71634,120.296554
80708,004172-1,800072,高雄醫學大學郵局,高雄72支,高雄市,三民區,十全一路100號(高雄醫學大學內),高雄市三民區十全一路100號(高雄醫學大學內),22.646742,120.31095
80402,004173-4,800073,高雄高分院郵局,高雄73支,高雄市,鼓山區,明誠三路586號(高等法院高雄分院內),高雄市鼓山區明誠三路586號(高等法院高雄分院內),22.661761,120.298847
81362,004174-8,800074,左營榮總郵局,高雄74支,高雄市,左營區,大中一路386號(榮總高雄分院內),高雄市左營區大中一路386號(榮總高雄分院內),22.678414,120.322726
81271,004175-1,800075,高雄高松郵局,高雄75支,高雄市,小港區,高鳳路33-3、4號,高雄市小港區高鳳路33-3、4號,22.574459,120.371459
80122,004176-5,800076,高雄地方法院郵局,高雄76支,高雄市,前金區,市中一路171號(高雄地院內),高雄市前金區市中一路171號(高雄地院內),22.626309,120.290359
80546,004177-9,800077,高雄中洲郵局,高雄77支,高雄市,旗津區,旗津二路243號,高雄市旗津區旗津二路243號,22.576297,120.295721
81268,004178-2,800078,高雄宏平郵局,高雄78支,高雄市,小港區,宏平路322號,高雄市小港區宏平路322號,22.569885,120.36046
80790,004179-6,800079,高雄鼎金郵局,高雄79支,高雄市,三民區,鼎強街264、266號,高雄市三民區鼎強街264、266號,22.668196,120.321882
80747,004181-1,800081,高雄中都郵局,高雄81支,高雄市,三民區,力行路89、91號,高雄市三民區力行路89、91號,22.638508,120.288445
80465,004182-5,800082,高雄凹仔底郵局,高雄82支,高雄市,鼓山區,文信路327號,高雄市鼓山區文信路327號,22.664403,120.298622
81162,004183-9,800083,楠梓建楠郵局,高雄83支,高雄市,楠梓區,建楠路3號,高雄市楠梓區建楠路3號,22.727282,120.329876
80646,004184-2,800084,高雄崗山仔郵局,高雄84支,高雄市,前鎮區,瑞北路39號,高雄市前鎮區瑞北路39號,22.609117,120.334949
81262,004185-6,800085,高雄中林子郵局,高雄85支,高雄市,小港區,中智街1號,高雄市小港區中智街1號,22.529016,120.365942
84001,004186-0,800086,義守大學郵局,高雄86支,高雄市,大樹區,學城路1段1號,高雄市大樹區學城路1段1號,22.72713,120.40629
81274,004187-3,800087,高雄桂林郵局,高雄87支,高雄市,小港區,桂華街130號,高雄市小港區桂華街130號,22.583369,120.357957
81365,004188-7,800088,左營菜公郵局,高雄88支,高雄市,左營區,博愛三路520、522、524、526號,高雄市左營區博愛三路520、522、524、526號,22.679508,120.308937
81368,004189-1,800089,左營福山郵局,高雄89支,高雄市,左營區,自由四路332號,高雄市左營區自由四路332號,22.685092,120.316799
81463,004190-2,800090,仁武仁雄郵局,高雄90支,高雄市,仁武區,仁和里仁忠路79、81號,高雄市仁武區仁和里仁忠路79、81號,22.677332,120.355913
81167,004191-6,800091,高雄高等行政法院郵局,高雄91支,高雄市,楠梓區,興楠路180號,高雄市楠梓區興楠路180號,22.731414,120.335791
81362,004192-0,800092,高雄郵件中心郵局,高雄92支,高雄市,左營區,民族一路853號,高雄市左營區民族一路853號,22.677154,120.318084
81154,004193-3,800093,楠梓翠屏郵局,高雄93支,高雄市,楠梓區,德祥路129、131號,高雄市楠梓區德祥路129、131號,22.726945,120.31009
80674,004194-7,800094,高雄君毅郵局,高雄94支,高雄市,前鎮區,中華五路963號,高雄市前鎮區中華五路963號,22.601498,120.306329
81455,004195-1,800095,仁武八德郵局,高雄95支,高雄市,仁武區,八德南路396號,高雄市仁武區八德南路396號,22.681016,120.339922
83054,010100-3,830000,鳳山郵局,高雄96支,高雄市,鳳山區,中山東路86-2號,高雄市鳳山區中山東路86-2號,22.624332,120.371928
83059,010101-7,830001,陸軍官校郵局,高雄97支,高雄市,鳳山區,維武路1號(陸軍官校內),高雄市鳳山區維武路1號(陸軍官校內),22.619172,120.365552
83341,010102-1,830002,鳥松郵局,高雄98支,高雄市,鳥松區,中正路311號,高雄市鳥松區中正路311號,22.66174,120.363574
83053,010103-4,830003,澄清湖郵局,高雄99支,高雄市,鳳山區,青年路2段634、636號,高雄市鳳山區青年路2段634、636號,22.647144,120.347825
82445,010104-8,830004,燕巢義大醫院郵局,高雄100支,高雄市,燕巢區,義大路1號,高雄市燕巢區義大路1號,22.765969,120.364366
83001,010105-1,830005,鳳山行政中心郵局,高雄101支,高雄市,鳳山區,光復路2段132號(高雄市政府鳳山行政中心內),高雄市鳳山區光復路2段132號(高雄市政府鳳山行政中心內),22.629832,120.343674
83052,010106-5,830006,鳳山文山郵局,高雄102支,高雄市,鳳山區,文衡路236號,高雄市鳳山區文衡路236號,22.638328,120.35629
83167,010107-9,830007,大寮郵局,高雄103支,高雄市,大寮區,永芳里鳳林三路530號,高雄市大寮區永芳里鳳林三路530號,22.606639,120.395499
83065,010108-2,830008,鳳山大東郵局,高雄104支,高雄市,鳳山區,大東一路122、124號,高雄市鳳山區大東一路122、124號,22.621967,120.360987
83088,010109-6,830009,鳳山五甲郵局,高雄105支,高雄市,鳳山區,五甲三路45號,高雄市鳳山區五甲三路45號,22.5925,120.327234
83143,010111-1,830011,大寮中庄郵局,高雄107支,高雄市,大寮區,鳳屏一路370、372號,高雄市大寮區鳳屏一路370、372號,22.63491,120.390839
83082,010113-9,830013,鳳山一甲郵局,高雄108支,高雄市,鳳山區,五甲二路87、89、91號,高雄市鳳山區五甲二路87、89、91號,22.602053,120.341808
83062,010114-2,830014,鳳山鳳松路郵局,高雄109支,高雄市,鳳山區,鳳松路11號,高雄市鳳山區鳳松路11號,22.632415,120.360933
83150,010115-6,830015,大寮中興郵局,高雄110支,高雄市,大寮區,鳳林四路34至38號,高雄市大寮區鳳林四路34至38號,22.614772,120.388145
83072,010116-0,830016,鳳山新甲郵局,高雄111支,高雄市,鳳山區,大明路39、41號,高雄市鳳山區大明路39、41號,22.607622,120.341706
83343,010118-7,830018,鳥松仁美郵局,高雄112支,高雄市,鳥松區,學堂路89號,高雄市鳥松區學堂路89號,22.658301,120.39226
83075,010119-1,830019,鳳山新富郵局,高雄113支,高雄市,鳳山區,新富路391號,高雄市鳳山區新富路391號,22.616275,120.348661
84041,010120-2,830020,大樹九曲堂郵局,高雄114支,高雄市,大樹區,久堂里中興街143號,高雄市大樹區久堂里中興街143號,22.655692,120.420152
84047,010121-6,830021,大樹郵局,高雄115支,高雄市,大樹區,檨腳里中興西路40號,高雄市大樹區檨腳里中興西路40號,22.691284,120.431452
83160,010122-0,830022,大寮大發郵局,高雄116支,高雄市,大寮區,大寮路767號,高雄市大寮區大寮路767號,22.591415,120.416166
83058,010123-3,830023,鳳山三民路郵局,高雄117支,高雄市,鳳山區,三民路289號,高雄市鳳山區三民路289號,22.6256,120.357962
83248,010124-7,830024,林園郵局,高雄118支,高雄市,林園區,東林里鳳林路1段176號,高雄市林園區東林里鳳林路1段176號,22.50595,120.397146
83241,010125-1,830025,林園三庄郵局,高雄119支,高雄市,林園區,林內里林內路153號,高雄市林園區林內里林內路153號,22.53519,120.401234
83248,010126-4,830026,林園福興郵局,高雄120支,高雄市,林園區,東林里福興街104號,高雄市林園區東林里福興街104號,22.505129,120.39469
83301,010127-8,830027,鳥松長庚醫院郵局,高雄121支,高雄市,鳥松區,鳥松里大埤路125號(長庚兒童醫院內),高雄市鳥松區鳥松里大埤路125號(長庚兒童醫院內),22.649442,120.354273
83095,010128-1,830028,鳳山中崙郵局,高雄122支,高雄市,鳳山區,中崙路576號,高雄市鳳山區中崙路576號,22.602133,120.351262
83093,010129-5,830029,鳳山過埤郵局,高雄123支,高雄市,鳳山區,過勇路156、158號,高雄市鳳山區過勇路156、158號,22.588662,120.362892
83046,010130-7,830030,鳳山鎮北郵局,高雄124支,高雄市,鳳山區,經武路166、168號,高雄市鳳山區經武路166、168號,22.635954,120.364178
84256,010131-1,830031,旗山郵局,高雄125支,高雄市,旗山區,延平一路690號,高雄市旗山區延平一路690號,22.883958,120.482971
84244,010132-4,830032,旗山旗尾郵局,高雄126支,高雄市,旗山區,延平二路8、10號,高雄市旗山區延平二路8、10號,22.881781,120.492536
84257,010133-8,830033,旗山大洲郵局,高雄127支,高雄市,旗山區,旗南二路192-1號,高雄市旗山區旗南二路192-1號,22.842494,120.463752
84248,010134-1,830034,旗山圓潭郵局,高雄128支,高雄市,旗山區,旗甲路2段354號,高雄市旗山區旗甲路2段354號,22.9225,120.497516
84552,010135-5,830035,內門郵局,高雄129支,高雄市,內門區,內豐里內埔121號,高雄市內門區內豐里內埔121號,22.938899,120.461526
84654,010136-9,830036,杉林郵局,高雄130支,高雄市,杉林區,上平里山仙路26號,高雄市杉林區上平里山仙路26號,22.972956,120.540652
84243,010137-2,830037,旗山四保郵局,高雄131支,高雄市,旗山區,中山路242號,高雄市旗山區中山路242號,22.891764,120.481258
84348,010138-6,830038,美濃郵局,高雄132支,高雄市,美濃區,中正路1段39號,高雄市美濃區中正路1段39號,22.900645,120.541815
84349,010139-0,830039,美濃中壇郵局,高雄133支,高雄市,美濃區,中興路1段788號,高雄市美濃區中興路1段788號,22.886653,120.531591
84742,010140-1,830040,甲仙郵局,高雄134支,高雄市,甲仙區,林森路44號,高雄市甲仙區林森路44號,23.082997,120.589058
84941,010141-5,830041,那瑪夏郵局,高雄135支,高雄市,那瑪夏區,瑪雅里平和巷164號,高雄市那瑪夏區瑪雅里平和巷164號,23.238392,120.696014
84441,010142-9,830042,六龜郵局,高雄136支,高雄市,六龜區,義寶里光復路173號,高雄市六龜區義寶里光復路173號,22.99434,120.635472
84841,010143-2,830043,桃源郵局,高雄137支,高雄市,桃源區,桃源里南進巷182號,高雄市桃源區桃源里南進巷182號,23.158798,120.764019
84444,010144-6,830044,六龜寶來郵局,高雄138支,高雄市,六龜區,寶來街18-1號,高雄市六龜區寶來街18-1號,23.107745,120.699379
82051,010145-0,830045,岡山郵局,高雄139支,高雄市,岡山區,民有路68號,高雄市岡山區民有路68號,22.792177,120.296342
82047,010146-3,830046,空軍通校郵局,高雄140支,高雄市,岡山區,介壽西路198號〈空軍航空技術學院內〉　,高雄市岡山區介壽西路198號〈空軍航空技術學院內〉　,22.784618,120.278131
82548,010148-1,830048,橋頭郵局,高雄142支,高雄市,橋頭區,橋頭里橋頭路113號,高雄市橋頭區橋頭里橋頭路113號,22.757741,120.311228
82063,010149-4,830049,空軍機校郵局,高雄143支,高雄市,岡山區,巨輪路2號〈空軍航空技術學院內〉,高雄市岡山區巨輪路2號〈空軍航空技術學院內〉,22.797594,120.279612
82743,010150-6,830050,彌陀郵局,高雄144支,高雄市,彌陀區,彌陀里中正路7號,高雄市彌陀區彌陀里中正路7號,22.779372,120.249766
82441,010151-0,830051,燕巢郵局,高雄145支,高雄市,燕巢區,南燕里中民路621號,高雄市燕巢區南燕里中民路621號,22.793204,120.3609
82445,010152-3,830052,燕巢鳳山厝郵局,高雄146支,高雄市,燕巢區,鳳雄里鳳旗路39號,高雄市燕巢區鳳雄里鳳旗路39號,22.755357,120.357087
82641,010153-7,830053,梓官郵局,高雄147支,高雄市,梓官區,梓義里中崙路260號,高雄市梓官區梓義里中崙路260號,22.761129,120.268656
82843,010154-1,830054,永安郵局,高雄148支,高雄市,永安區,永華里永華路15號,高雄市永安區永華里永華路15號,22.817246,120.225639
82646,010155-4,830055,梓官蚵子寮郵局,高雄149支,高雄市,梓官區,港九街68號,高雄市梓官區港九街68號,22.728346,120.255557
82344,010156-8,830056,田寮郵局,高雄150支,高雄市,田寮區,南安里崗北路61號,高雄市田寮區南安里崗北路61號,22.872648,120.359844
82248,010157-1,830057,阿蓮郵局,高雄151支,高雄市,阿蓮區,清蓮里民生路101號,高雄市阿蓮區清蓮里民生路101號,22.883159,120.326905
82042,010158-5,830058,岡山平和路郵局,高雄152支,高雄市,岡山區,平和路65號,高雄市岡山區平和路65號,22.794367,120.2948
82044,010159-9,830059,岡山仁壽路郵局,高雄153支,高雄市,岡山區,仁壽路215號,高雄市岡山區仁壽路215號,22.785854,120.28578
82057,010160-1,830060,岡山五甲尾郵局,高雄154支,高雄市,岡山區,嘉興路255號,高雄市岡山區嘉興路255號,22.821822,120.303581
82841,010161-4,830061,永安竹仔港郵局,高雄155支,高雄市,永安區,永工二路1號(永安工業區內),高雄市永安區永工二路1號(永安工業區內),22.808737,120.251909
82946,010162-8,830062,湖內郵局,高雄156支,高雄市,湖內區,中正路2段13號,高雄市湖內區中正路2段13號,22.908434,120.214816
82945,010163-1,830063,湖內大湖郵局,高雄157支,高雄市,湖內區,大湖里民權路243號,高雄市湖內區大湖里民權路243號,22.892511,120.242027
85245,010164-5,830064,茄萣郵局,高雄158支,高雄市,茄萣區,進學路158號,高雄市茄萣區進學路158號,22.903934,120.186807
82141,010165-9,830065,路竹郵局,高雄159支,高雄市,路竹區,中興路11號,高雄市路竹區中興路11號,22.860901,120.260897
82151,010166-2,830066,路竹竹南郵局,高雄160支,高雄市,路竹區,中山路1097號,高雄市路竹區中山路1097號,22.856423,120.261
82144,010167-6,830067,路竹一甲郵局,高雄161支,高雄市,路竹區,大智路60號,高雄市路竹區大智路60號,22.873971,120.270535
82061,010168-0,830068,岡山大仁郵局,高雄162支,高雄市,岡山區,大仁路89號,高雄市岡山區大仁路89號,22.805467,120.301609
60044,005100-8,600000,嘉義文化路郵局,嘉義901支,嘉義市,東區,文化路134號,嘉義市東區文化路134號,23.477912,120.449996
60041,005101-1,600001,嘉義中山路郵局,嘉義1支,嘉義市,東區,中山路107號,嘉義市東區中山路107號,23.481949,120.457692
60859,005102-5,600002,水上南靖郵局,嘉義2支,嘉義縣,水上鄉,三鎮村三鎮路1號,嘉義縣水上鄉三鎮村三鎮路1號,23.413197,120.385463
60857,005103-9,600003,水上中庄郵局,嘉義3支,嘉義縣,水上鄉,中庄村中庄61-61號,嘉義縣水上鄉中庄村中庄61-61號,23.421076,120.436903
60042,005104-2,600004,嘉義站前郵局,嘉義4支,嘉義市,西區,中正路647號,嘉義市西區中正路647號,23.478531,120.443334
60044,005105-6,600005,嘉義民權路郵局,嘉義5支,嘉義市,西區,民權路467號,嘉義市西區民權路467號,23.481751,120.445594
61250,005106-0,600006,太保郵局,嘉義6支,嘉義縣,太保市,後潭里439之2號,嘉義縣太保市後潭里439之2號,23.452751,120.340851
60044,005107-3,600007,嘉義忠孝郵局,嘉義7支,嘉義市,東區,民權路208-1號,嘉義市東區民權路208-1號,23.48322,120.454546
60092,005108-7,600008,嘉義北社郵局,嘉義8支,嘉義市,西區,北興街245號,嘉義市西區北興街245號,23.485499,120.438471
60848,005109-1,600009,水上郵局,嘉義9支,嘉義縣,水上鄉,中興路356號,嘉義縣水上鄉中興路356號,23.430769,120.401125
60089,005110-2,600010,嘉義玉山郵局,嘉義10支,嘉義市,西區,中興路672號,嘉義市西區中興路672號,23.472207,120.428865
60850,005111-6,600011,水上回歸郵局,嘉義11支,嘉義縣,水上鄉,三和村新厝仔2之4號,嘉義縣水上鄉三和村新厝仔2之4號,23.454236,120.408963
60096,005112-0,600012,嘉義福全郵局,嘉義12支,嘉義市,西區,北港路55、57號,嘉義市西區北港路55、57號,23.476981,120.43524
60042,005113-3,600013,嘉義東門郵局,嘉義13支,嘉義市,東區,中正路141號,嘉義市東區中正路141號,23.47947,120.456013
60241,005114-7,600014,番路郵局,嘉義14支,嘉義縣,番路鄉,下坑村菜公店55號,嘉義縣番路鄉下坑村菜公店55號,23.463894,120.554534
60078,005115-1,600015,嘉義後湖郵局,嘉義15支,嘉義市,東區,保健街30-5號,嘉義市東區保健街30-5號,23.500842,120.454668
60057,005116-4,600016,嘉義興業路郵局,嘉義16支,嘉義市,東區,興業東路12號,嘉義市東區興業東路12號,23.468933,120.453663
60054,005117-8,600017,嘉義成功街郵局,嘉義17支,嘉義市,西區,成功街112號,嘉義市西區成功街112號,23.472173,120.4432
60066,005118-1,600018,嘉義彌陀郵局,嘉義18支,嘉義市,東區,彌陀路268號,嘉義市東區彌陀路268號,23.474156,120.462788
60053,005119-5,600019,嘉義湖內郵局,嘉義19支,嘉義市,西區,民生南路540號,嘉義市西區民生南路540號,23.459023,120.443393
60081,005120-7,600020,嘉義埤子頭郵局,嘉義20支,嘉義市,西區,文化路456號,嘉義市西區文化路456號,23.488777,120.44666
60668,005121-1,600021,中埔郵局,嘉義21支,嘉義縣,中埔鄉,中埔村167號,嘉義縣中埔鄉中埔村167號,23.424737,120.523097
60004,005122-4,600022,嘉義大學郵局,嘉義22支,嘉義市,東區,學府路300號,嘉義市東區學府路300號,23.467323,120.483416
60661,005123-8,600023,中埔後庄郵局,嘉義23支,嘉義縣,中埔鄉,和興村中華路889號,嘉義縣中埔鄉和興村中華路889號,23.450518,120.459708
61251,005124-1,600024,太保南新郵局,嘉義24支,嘉義縣,太保市,北新里中山路1段470、472號,嘉義縣太保市北新里中山路1段470、472號,23.498538,120.379408
60741,005125-5,600025,大埔郵局,嘉義25支,嘉義縣,大埔鄉,大埔村262號之1,嘉義縣大埔鄉大埔村262號之1,23.299035,120.593183
60447,005126-9,600026,竹崎郵局,嘉義26支,嘉義縣,竹崎鄉,中山路68號,嘉義縣竹崎鄉中山路68號,23.52339,120.551029
60444,005127-2,600027,竹崎內埔郵局,嘉義27支,嘉義縣,竹崎鄉,內埔村元興路127號,嘉義縣竹崎鄉內埔村元興路127號,23.485131,120.558882
60541,005128-6,600028,阿里山郵局,嘉義28支,嘉義縣,阿里山鄉,中正村2鄰東阿里山53號,嘉義縣阿里山鄉中正村2鄰東阿里山53號,23.51141,120.804548
60072,005129-0,600029,嘉義林森郵局,嘉義29支,嘉義市,東區,林森東路488號,嘉義市東區林森東路488號,23.491865,120.470447
60061,005130-1,600030,嘉義興嘉郵局,嘉義30支,嘉義市,西區,南京路409號,嘉義市西區南京路409號,23.46476,120.435954
61252,005131-5,600031,太保嘉太郵局,嘉義31支,嘉義縣,太保市,嘉太工業區中興路1號,嘉義縣太保市嘉太工業區中興路1號,23.508713,120.362872
62142,005132-9,600032,民雄郵局,嘉義32支,嘉義縣,民雄鄉,東榮村民族路17號,嘉義縣民雄鄉東榮村民族路17號,23.554948,120.430998
62149,005133-2,600033,民雄頭橋郵局,嘉義33支,嘉義縣,民雄鄉,頭橋工業區工業一路2號,嘉義縣民雄鄉頭橋工業區工業一路2號,23.519964,120.436068
62102,005134-6,600034,中正大學郵局,嘉義34支,嘉義縣,民雄鄉,三興村大學路1段168號,嘉義縣民雄鄉三興村大學路1段168號,23.560948,120.472143
62154,005135-0,600035,民雄雙福郵局,嘉義35支,嘉義縣,民雄鄉,中山路7號,嘉義縣民雄鄉中山路7號,23.523556,120.447421
60344,005136-3,600036,梅山郵局,嘉義36支,嘉義縣,梅山鄉,中山路109號,嘉義縣梅山鄉中山路109號,23.580721,120.55896
61693,005137-7,600037,新港郵局,嘉義37支,嘉義縣,新港鄉,宮前村中正路8號,嘉義縣新港鄉宮前村中正路8號,23.555093,120.346229
61541,005139-4,600039,六腳蒜頭郵局,嘉義39支,嘉義縣,六腳鄉,蒜頭村126之1號,嘉義縣六腳鄉蒜頭村126之1號,23.492644,120.292159
61363,005140-6,600040,朴子長庚醫院郵局,嘉義40支,嘉義縣,朴子市,嘉朴路西段8號1樓,嘉義縣朴子市嘉朴路西段8號1樓,23.46255,120.286072
62441,005141-0,600041,義竹郵局,嘉義41支,嘉義縣,義竹鄉,仁里村422-2號,嘉義縣義竹鄉仁里村422-2號,23.33731,120.243357
62541,005142-3,600042,布袋郵局,嘉義42支,嘉義縣,布袋鎮,九龍里入船路2號,嘉義縣布袋鎮九龍里入船路2號,23.377957,120.157995
62543,005143-7,600043,布袋過溝郵局,嘉義43支,嘉義縣,布袋鎮,中安里頂厝11號,嘉義縣布袋鎮中安里頂厝11號,23.420219,120.182283
62545,005144-1,600044,布袋大寮郵局,嘉義44支,嘉義縣,布袋鎮,東港里埔仔厝86號之1,嘉義縣布袋鎮東港里埔仔厝86號之1,23.373933,120.1848
62548,005145-4,600045,布袋新塭郵局,嘉義45支,嘉義縣,布袋鎮,復興里新塭24-17號,嘉義縣布袋鎮復興里新塭24-17號,23.324429,120.162093
61146,005146-8,600046,鹿草郵局,嘉義46支,嘉義縣,鹿草鄉,西井村長壽路222號,嘉義縣鹿草鄉西井村長壽路222號,23.411087,120.308105
61345,005147-1,600047,朴子郵局,嘉義47支,嘉義縣,朴子市,光復路46號,嘉義縣朴子市光復路46號,23.466178,120.246304
61347,005148-5,600048,朴子海通路郵局,嘉義48支,嘉義縣,朴子市,永和里4-2號,嘉義縣朴子市永和里4-2號,23.463744,120.238797
61441,005149-9,600049,東石郵局,嘉義49支,嘉義縣,東石鄉,東石村34號,嘉義縣東石鄉東石村34號,23.455833,120.150515
61363,005150-1,600050,朴子祥和郵局,嘉義50支,嘉義縣,朴子市,祥和二路西段6號,嘉義縣朴子市祥和二路西段6號,23.458081,120.289781
62242,005151-4,600051,大林郵局,嘉義51支,嘉義縣,大林鎮,平和街28-1號,嘉義縣大林鎮平和街28-1號,23.60235,120.456645
60441,005152-8,600052,竹崎灣橋郵局,嘉義52支,嘉義縣,竹崎鄉,灣橋村五間厝3-1號,嘉義縣竹崎鄉灣橋村五間厝3-1號,23.492735,120.50201
60083,005153-1,600053,嘉義保安郵局,嘉義53支,嘉義市,西區,保安一路241號,嘉義市西區保安一路241號,23.492937,120.434953
62341,005154-5,600054,溪口郵局,嘉義54支,嘉義縣,溪口鄉,中正路131號,嘉義縣溪口鄉中正路131號,23.603817,120.395627
62242,005155-9,600055,大林中山路郵局,嘉義55支,嘉義縣,大林鎮,中山路232號,嘉義縣大林鎮中山路232號,23.606026,120.45613
30041,006100-4,300000,新竹武昌街郵局,新竹901支,新竹市,東區,武昌街81號,新竹市東區武昌街81號,24.804548,120.968405
30041,006101-8,300001,新竹東門郵局,新竹1支,新竹市,東區,東門街51號,新竹市東區東門街51號,24.812963,120.972876
30071,006102-1,300002,清華大學郵局,新竹2支,新竹市,東區,光復路2段99號,新竹市東區光復路2段99號,24.800167,120.997596
30059,006103-5,300003,新竹復中里郵局,新竹3支,新竹市,東區,經國路1段452-1號,新竹市東區經國路1段452-1號,24.826365,120.978726
30053,006104-9,300004,新竹光華街郵局,新竹4支,新竹市,北區,光華北街87號,新竹市北區光華北街87號,24.827615,120.971169
30094,006105-2,300005,新竹內湖路郵局,新竹5支,新竹市,香山區,內湖路68號,新竹市香山區內湖路68號,24.743791,120.905629
30042,006106-6,300006,新竹英明街郵局,新竹6支,新竹市,北區,英明街10號,新竹市北區英明街10號,24.810624,120.967474
30074,006107-0,300007,新竹關東橋郵局,新竹7支,新竹市,東區,光復路1段313號,新竹市東區光復路1段313號,24.790175,121.018883
30054,006108-3,300008,新竹樹林頭郵局,新竹8支,新竹市,北區,東大路2段449號,新竹市北區東大路2段449號,24.820529,120.960615
30068,006109-7,300009,新竹學府路郵局,新竹9支,新竹市,東區,學府路128號,新竹市東區學府路128號,24.803303,120.984882
30044,006110-9,300010,新竹西門郵局,新竹10支,新竹市,北區,北大路471號,新竹市北區北大路471號,24.808604,120.960165
30091,006111-2,300011,新竹牛埔郵局,新竹11支,新竹市,香山區,牛埔南路42號,新竹市香山區牛埔南路42號,24.804247,120.9399
30841,006113-0,300013,寶山郵局,新竹13支,新竹縣,寶山鄉,雙園路2段349號,新竹縣寶山鄉雙園路2段349號,24.765119,120.990173
30048,006114-3,300014,新竹文雅郵局,新竹14支,新竹市,北區,竹光路218號,新竹市北區竹光路218號,24.811354,120.956639
30061,006115-7,300015,新竹西大路郵局,新竹15支,新竹市,東區,南大路428號,新竹市東區南大路428號,24.797448,120.968652
30050,006116-1,300016,新竹民主路郵局,新竹16支,新竹市,東區,民主路18號,新竹市東區民主路18號,24.810785,120.982826
30069,006117-4,300017,新竹東園郵局,新竹17支,新竹市,東區,忠孝路434巷3號,新竹市東區忠孝路434巷3號,24.804318,120.982979
30058,006118-8,300018,新竹南寮郵局,新竹18支,新竹市,北區,西濱路1段480號,新竹市北區西濱路1段480號,24.841662,120.933613
30075,006119-1,300019,新竹科學園郵局,新竹19支,新竹市,東區,科學園區工業東二路2-1號,新竹市東區科學園區工業東二路2-1號,24.788018,121.00479
30094,006120-3,300020,新竹三姓橋郵局,新竹20支,新竹市,香山區,中華路5段53號,新竹市香山區中華路5段53號,24.787811,120.927709
30063,006121-7,300021,新竹南大路郵局,新竹21支,新竹市,東區,南大路621號,新竹市東區南大路621號,24.795508,120.967369
30043,006122-1,300022,新竹民生路郵局,新竹22支,新竹市,東區,民生路243號,新竹市東區民生路243號,24.812369,120.97523
30051,006123-4,300023,新竹經國路郵局,新竹23支,新竹市,北區,經國路2段56號1樓,新竹市北區經國路2段56號1樓,24.821391,120.965315
30070,006124-8,300024,新竹建中郵局,新竹24支,新竹市,東區,建中一路8號,新竹市東區建中一路8號,24.803285,120.997256
30010,006125-1,300025,交通大學郵局,新竹25支,新竹市,東區,大學路1001號,新竹市東區大學路1001號,24.788249,120.998332
30048,006126-5,300026,新竹南勢郵局,新竹26支,新竹市,北區,竹光路500號,新竹市北區竹光路500號,24.81266,120.950551
30545,006127-9,300027,新埔郵局,新竹27支,新竹縣,新埔鎮,中正路210號,新竹縣新埔鎮中正路210號,24.827545,121.082803
30545,006128-2,300028,新埔中正郵局,新竹28支,新竹縣,新埔鎮,中正路411號,新竹縣新埔鎮中正路411號,24.828343,121.0757
30264,006129-6,300029,竹北嘉豐郵局,新竹29支,新竹縣,竹北市,福興東路二段138號,新竹縣竹北市福興東路二段138號,24.814942,121.028252
30641,006130-8,300030,關西郵局,新竹30支,新竹縣,關西鎮,正義路86號,新竹縣關西鎮正義路86號,24.793784,121.176064
30077,006132-5,300032,寶山大崎郵局,新竹32支,新竹縣,寶山鄉,大崎村園區三路103號,新竹縣寶山鄉大崎村園區三路103號,24.778967,120.999295
30284,006133-9,300033,竹北郵局,新竹33支,新竹縣,竹北市,中正西路60號,新竹縣竹北市中正西路60號,24.843649,121.002427
30241,006134-2,300034,竹北中山郵局,新竹34支,新竹縣,竹北市,中正東路42號,新竹縣竹北市中正東路42號,24.835457,121.018745
30265,006135-6,300035,竹北博愛郵局,新竹35支,新竹縣,竹北市,博愛街390號,新竹縣竹北市博愛街390號,24.837486,121.00896
30264,006136-0,300036,竹北六家郵局,新竹36支,新竹縣,竹北市,嘉興路457號,新竹縣竹北市嘉興路457號,24.823001,121.032494
30251,006137-3,300037,竹北光明郵局,新竹37支,新竹縣,竹北市,縣政九路138號,新竹縣竹北市縣政九路138號,24.829803,121.010945
30342,006138-7,300038,湖口郵局,新竹38支,新竹縣,湖口鄉,忠孝路26號,新竹縣湖口鄉忠孝路26號,24.903523,121.046217
30441,006140-2,300040,新豐郵局,新竹40支,新竹縣,新豐鄉,振興街12號,新竹縣新豐鄉振興街12號,24.904081,120.98677
30012,006141-6,300041,中華大學郵局,新竹41支,新竹市,香山區,五褔路2段707號,新竹市香山區五褔路2段707號,24.759848,120.953454
30350,006142-0,300042,湖口鳳凰郵局,新竹42支,新竹縣,湖口鄉,勝利路2段90-1號,新竹縣湖口鄉勝利路2段90-1號,24.867399,121.026633
30443,006143-3,300043,新豐山崎郵局,新竹43支,新竹縣,新豐鄉,泰安街26號,新竹縣新豐鄉泰安街26號,24.869986,120.994236
30353,006144-7,300044,湖口新工郵局,新竹44支,新竹縣,湖口鄉,大勇路6號,新竹縣湖口鄉大勇路6號,24.875343,121.015134
30264,006145-1,300045,竹北成功郵局,新竹45支,新竹縣,竹北市,成功八路166、168號,新竹縣竹北市成功八路166、168號,24.818948,121.018095
30344,006146-4,300046,湖口德盛郵局,新竹46支,新竹縣,湖口鄉,成功路100號,新竹縣湖口鄉成功路100號,24.909753,121.042957
31047,006147-8,300047,竹東郵局,新竹47支,新竹縣,竹東鎮,東林路128號,新竹縣竹東鎮東林路128號,24.739995,121.0931
30742,006148-1,300048,芎林郵局,新竹48支,新竹縣,芎林鄉,文衡路426號,新竹縣芎林鄉文衡路426號,24.772453,121.083714
31242,006149-5,300049,橫山郵局,新竹49支,新竹縣,橫山鄉,新興村新興街137號,新竹縣橫山鄉新興村新興街137號,24.717884,121.140182
31243,006150-7,300050,橫山內灣郵局,新竹50支,新竹縣,橫山鄉,內灣村中正路309號,新竹縣橫山鄉內灣村中正路309號,24.706856,121.180749
31141,006151-1,300051,五峰郵局,新竹51支,新竹縣,五峰鄉,大隘村6鄰95號(圖書館內),新竹縣五峰鄉大隘村6鄰95號(圖書館內),24.661984,121.114965
31046,006152-4,300052,竹東下公館郵局,新竹52支,新竹縣,竹東鎮,東寧路1段77號,新竹縣竹東鎮東寧路1段77號,24.72617,121.095088
31341,006153-8,300053,尖石郵局,新竹53支,新竹縣,尖石鄉,嘉樂村2鄰麥樹仁46號,新竹縣尖石鄉嘉樂村2鄰麥樹仁46號,24.705602,121.201704
31054,006154-1,300054,竹東二重埔郵局,新竹54支,新竹縣,竹東鎮,中興路3段97號,新竹縣竹東鎮中興路3段97號,24.76967,121.056381
31047,006155-5,300055,竹東長春郵局,新竹55支,新竹縣,竹東鎮,長春路2段60號,新竹縣竹東鎮長春路2段60號,24.741345,121.087294
31057,006156-9,300056,竹東工研院郵局,新竹56支,新竹縣,竹東鎮,中興路4段195號,新竹縣竹東鎮中興路4段195號,24.777635,121.043992
31441,006157-2,300057,北埔郵局,新竹57支,新竹縣,北埔鄉,長興街1號,新竹縣北埔鄉長興街1號,24.700301,121.054705
31541,006158-6,300058,峨眉郵局,新竹58支,新竹縣,峨眉鄉,成功街26號,新竹縣峨眉鄉成功街26號,24.688749,121.020003
90041,007100-1,900000,屏東民生路郵局,屏東901支,屏東縣,屏東市,民生路250號,屏東縣屏東市民生路250號,22.670552,120.491605
90047,007102-8,900002,屏東林森路郵局,屏東2支,屏東縣,屏東市,林森路30-5號,屏東縣屏東市林森路30-5號,22.671553,120.49782
90074,007104-5,900004,屏東北平路郵局,屏東4支,屏東縣,屏東市,北平路26號,屏東縣屏東市北平路26號,22.6759,120.489
90066,007105-9,900005,屏東崇蘭郵局,屏東5支,屏東縣,屏東市,廣東路990號,屏東縣屏東市廣東路990號,22.687774,120.485353
91291,007106-2,900006,內埔水門郵局,屏東6支,屏東縣,內埔鄉,水門村成功路37號,屏東縣內埔鄉水門村成功路37號,22.709678,120.645563
90078,007107-6,900007,屏東大埔郵局,屏東7支,屏東縣,屏東市,民族路182-2號,屏東縣屏東市民族路182-2號,22.670964,120.482601
90942,007108-0,900008,麟洛郵局,屏東8支,屏東縣,麟洛鄉,麟蹄村中山路292號,屏東縣麟洛鄉麟蹄村中山路292號,22.653357,120.523274
90049,007109-3,900009,屏東歸來郵局,屏東9支,屏東縣,屏東市,民生路61-7號,屏東縣屏東市民生路61-7號,22.664195,120.503323
90841,007110-5,900010,長治郵局,屏東10支,屏東縣,長治鄉,進興村復興路68號,屏東縣長治鄉進興村復興路68號,22.676799,120.530816
90741,007111-9,900011,鹽埔郵局,屏東11支,屏東縣,鹽埔鄉,新二村彭厝路39號,屏東縣鹽埔鄉新二村彭厝路39號,22.742245,120.556045
90141,007112-2,900012,三地門郵局,屏東12支,屏東縣,三地門鄉,三地村行政街3號,屏東縣三地門鄉三地村行政街3號,22.714811,120.653329
90241,007113-6,900013,霧台郵局,屏東13支,屏東縣,霧臺鄉,霧台村中山巷66號,屏東縣霧臺鄉霧台村中山巷66號,22.743896,120.731396
90341,007114-0,900014,瑪家郵局,屏東14支,屏東縣,瑪家鄉,涼山村涼山巷22-1號,屏東縣瑪家鄉涼山村涼山巷22-1號,22.689432,120.637075
90087,007115-3,900015,屏東永安郵局,屏東15支,屏東縣,屏東市,棒球路57號1樓,屏東縣屏東市棒球路57號1樓,22.655838,120.481506
90061,007116-7,900016,屏東海豐郵局,屏東16支,屏東縣,屏東市,海豐街36-4號,屏東縣屏東市海豐街36-4號,22.700914,120.51085
90086,007117-1,900017,屏東公館郵局,屏東17支,屏東縣,屏東市,龍華路18號,屏東縣屏東市龍華路18號,22.638091,120.485071
90074,007118-4,900018,屏東中正路郵局,屏東18支,屏東縣,屏東市,中正路247號,屏東縣屏東市中正路247號,22.682128,120.491772
90059,007119-8,900019,屏東廣東路郵局,屏東19支,屏東縣,屏東市,廣東路458-5號,屏東縣屏東市廣東路458-5號,22.680462,120.501767
90063,007120-0,900020,屏東勝利路郵局,屏東20支,屏東縣,屏東市,勝利路123號,屏東縣屏東市勝利路123號,22.679355,120.485935
90076,007121-3,900021,屏東六塊厝郵局,屏東21支,屏東縣,屏東市,光復路304號,屏東縣屏東市光復路304號,22.669518,120.476493
90081,007122-7,900022,屏東厚生郵局,屏東22支,屏東縣,屏東市,建國路182號,屏東縣屏東市建國路182號,22.66549,120.478956
90841,007123-1,900023,長治繁華郵局,屏東23支,屏東縣,長治鄉,繁華村水源路90-1號,屏東縣長治鄉繁華村水源路90-1號,22.70218,120.573476
90088,007124-4,900024,屏東頭前溪郵局,屏東24支,屏東縣,屏東市,前進里清進巷79-6號,屏東縣屏東市前進里清進巷79-6號,22.648545,120.46471
90546,007126-1,900026,里港郵局,屏東26支,屏東縣,里港鄉,春林村中山南路40號,屏東縣里港鄉春林村中山南路40號,22.772778,120.494401
90544,007127-5,900027,里港三和路郵局,屏東27支,屏東縣,里港鄉,三廓村三和路127-1號,屏東縣里港鄉三廓村三和路127-1號,22.809934,120.502815
90641,007128-9,900028,高樹郵局,屏東28支,屏東縣,高樹鄉,高樹村興中路327號,屏東縣高樹鄉高樹村興中路327號,22.826522,120.600046
85191,007129-2,900029,茂林郵局,屏東29支,高雄市,茂林區,茂林里8-3號,高雄市茂林區茂林里8-3號,22.886564,120.664462
91341,007130-4,900030,萬丹郵局,屏東30支,屏東縣,萬丹鄉,萬全村萬丹路1段402號,屏東縣萬丹鄉萬全村萬丹路1段402號,22.591134,120.489141
90443,007131-8,900031,九如郵局,屏東31支,屏東縣,九如鄉,東寧路190號,屏東縣九如鄉東寧路190號,22.733733,120.490581
90745,007132-1,900032,鹽埔鹽中郵局,屏東32支,屏東縣,鹽埔鄉,鹽中村勝利路81-2號,屏東縣鹽埔鄉鹽中村勝利路81-2號,22.756521,120.575654
91241,007133-5,900033,內埔郵局,屏東33支,屏東縣,內埔鄉,內埔村文化路277號,屏東縣內埔鄉內埔村文化路277號,22.612448,120.567046
91245,007134-9,900034,內埔龍泉郵局,屏東34支,屏東縣,內埔鄉,龍潭村昭勝路265號,屏東縣內埔鄉龍潭村昭勝路265號,22.674705,120.600739
91250,007135-2,900035,內埔豐田郵局,屏東35支,屏東縣,內埔鄉,豐田村中正路310號,屏東縣內埔鄉豐田村中正路310號,22.631576,120.544112
91246,007136-6,900036,內埔建興郵局,屏東36支,屏東縣,內埔鄉,建興村100號(屏東榮家內),屏東縣內埔鄉建興村100號(屏東榮家內),22.65518,120.575397
91201,007137-0,900037,內埔學府郵局,屏東37支,屏東縣,內埔鄉,老埤村學府路1號(屏東科技大學內),屏東縣內埔鄉老埤村學府路1號(屏東科技大學內),22.644478,120.608668
91350,007138-3,900038,萬丹社皮郵局,屏東38支,屏東縣,萬丹鄉,社皮村大昌路471號,屏東縣萬丹鄉社皮村大昌路471號,22.615702,120.469783
94043,007139-7,900039,枋寮郵局,屏東39支,屏東縣,枋寮鄉,中山路194號,屏東縣枋寮鄉中山路194號,22.366449,120.595073
94041,007140-9,900040,枋寮水底寮郵局,屏東40支,屏東縣,枋寮鄉,中山路二段258號,屏東縣枋寮鄉中山路二段258號,22.385141,120.595164
94151,007141-2,900041,枋山郵局,屏東41支,屏東縣,枋山鄉,舊庄路47號,屏東縣枋山鄉舊庄路47號,22.198541,120.68967
94249,007142-6,900042,春日郵局,屏東42支,屏東縣,春日鄉,春日路13號,屏東縣春日鄉春日路13號,22.370353,120.624327
94642,007143-0,900043,恆春郵局,屏東43支,屏東縣,恆春鎮,恆西路1巷32號,屏東縣恆春鎮恆西路1巷32號,22.00177,120.742504
94644,007145-7,900045,恆春墾丁郵局,屏東45支,屏東縣,恆春鎮,恆西路1巷32號,屏東縣恆春鎮恆西路1巷32號,22.00177,120.742504
94643,007146-1,900046,恆春南門郵局,屏東46支,屏東縣,恆春鎮,中正路51號,屏東縣恆春鎮中正路51號,22.002671,120.74471
94441,007147-4,900047,車城郵局,屏東47支,屏東縣,車城鄉,福興村中山路54號,屏東縣車城鄉福興村中山路54號,22.073772,120.713836
94541,007148-8,900048,牡丹郵局,屏東48支,屏東縣,牡丹鄉,石門村石門路31-3號,屏東縣牡丹鄉石門村石門路31-3號,22.125315,120.773622
94741,007149-1,900049,滿州郵局,屏東49支,屏東縣,滿州鄉,中山路25號,屏東縣滿州鄉中山路25號,22.018249,120.838044
92043,007150-3,900050,潮州郵局,屏東50支,屏東縣,潮州鎮,光春路13號,屏東縣潮州鎮光春路13號,22.544773,120.537139
92046,007151-7,900051,潮州新生路郵局,屏東51支,屏東縣,潮州鎮,新生路115號,屏東縣潮州鎮新生路115號,22.55132,120.53859
92341,007152-1,900052,萬巒郵局,屏東52支,屏東縣,萬巒鄉,萬和村中正路10號,屏東縣萬巒鄉萬和村中正路10號,22.57129,120.56574
92141,007153-4,900053,泰武郵局,屏東53支,屏東縣,泰武鄉,佳平村佳平巷102號,屏東縣泰武鄉佳平村佳平巷102號,22.591558,120.631244
92241,007154-8,900054,來義郵局,屏東54支,屏東縣,來義鄉,古樓村中正路6號,屏東縣來義鄉古樓村中正路6號,22.5262,120.63564
92046,007155-1,900055,潮州南進路郵局,屏東55支,屏東縣,潮州鎮,長興路1-13、1-15號,屏東縣潮州鎮長興路1-13、1-15號,22.551149,120.543714
92641,007156-5,900056,南州郵局,屏東56支,屏東縣,南州鄉,仁里村三民路9號,屏東縣南州鄉仁里村三民路9號,22.489973,120.511038
92442,007157-9,900057,崁頂郵局,屏東57支,屏東縣,崁頂鄉,崁頂村中正路220號,屏東縣崁頂鄉崁頂村中正路220號,22.51455,120.513518
91144,007158-2,900058,竹田郵局,屏東58支,屏東縣,竹田鄉,竹田村中山路28號,屏東縣竹田鄉竹田村中山路28號,22.586577,120.542943
91142,007159-6,900059,竹田西勢郵局,屏東59支,屏東縣,竹田鄉,西勢村光明路12-1號,屏東縣竹田鄉西勢村光明路12-1號,22.619962,120.529291
92541,007160-8,900060,新埤郵局,屏東60支,屏東縣,新埤鄉,新埤村新華路123號,屏東縣新埤鄉新埤村新華路123號,22.468738,120.550943
92741,007161-1,900061,林邊郵局,屏東61支,屏東縣,林邊鄉,中林村中山路116號,屏東縣林邊鄉中林村中山路116號,22.433812,120.516267
93143,007162-5,900062,佳冬郵局,屏東62支,屏東縣,佳冬鄉,佳冬村佳和路86號,屏東縣佳冬鄉佳冬村佳和路86號,22.414375,120.552085
92843,007163-9,900063,東港中正路郵局,屏東63支,屏東縣,東港鎮,頂新里中正路183號,屏東縣東港鎮頂新里中正路183號,22.468981,120.450942
92849,007164-2,900064,東港郵局,屏東64支,屏東縣,東港鎮,光復路一段293號,屏東縣東港鎮光復路一段293號,22.469764,120.460154
93245,007165-6,900065,新園郵局,屏東65支,屏東縣,新園鄉,仙吉村仙吉路40號,屏東縣新園鄉仙吉村仙吉路40號,22.540613,120.460197
93241,007166-0,900066,新園烏龍郵局,屏東66支,屏東縣,新園鄉,中洲村南興路106號,屏東縣新園鄉中洲村南興路106號,22.485673,120.458612
92941,007167-3,900067,琉球郵局,屏東67支,屏東縣,琉球鄉,本福村中山路105號,屏東縣琉球鄉本福村中山路105號,22.351213,120.380779
50091,008100-7,500000,彰化中央路郵局,彰化901支,彰化縣,彰化市,中央路270號,彰化縣彰化市中央路270號,24.0682,120.527
50861,008101-1,500001,和美郵局,彰化1支,彰化縣,和美鎮,彰美路五段331號,彰化縣和美鎮彰美路五段331號,24.111178,120.499164
50341,008102-4,500002,花壇郵局,彰化2支,彰化縣,花壇鄉,中正路316號,彰化縣花壇鄉中正路316號,24.0257,120.539
50065,008103-8,500003,彰化府前郵局,彰化3支,彰化縣,彰化市,中山路二段377號,彰化縣彰化市中山路二段377號,24.075025,120.543898
50044,008104-1,500004,彰化市仔尾郵局,彰化4支,彰化縣,彰化市,中正路一段214號,彰化縣彰化市中正路一段214號,24.083928,120.547758
50062,008105-5,500005,彰化過溝仔郵局,彰化5支,彰化縣,彰化市,彰美路一段166號,彰化縣彰化市彰美路一段166號,24.088648,120.538174
50241,008106-9,500006,芬園郵局,彰化6支,彰化縣,芬園鄉,芬草路二段225號,彰化縣芬園鄉芬草路二段225號,24.013425,120.630604
50046,008107-2,500007,彰化西門郵局,彰化7支,彰化縣,彰化市,中華路369號,彰化縣彰化市中華路369號,24.075948,120.535729
50743,008108-6,500008,線西郵局,彰化8支,彰化縣,線西鄉,和線路949號,彰化縣線西鄉和線路949號,24.129997,120.470644
50081,008109-0,500009,彰化台化郵局,彰化9支,彰化縣,彰化市,中山路三段359號,彰化縣彰化市中山路三段359號,24.087266,120.562328
50842,008110-1,500010,和美中寮郵局,彰化10支,彰化縣,和美鎮,彰新路三段123、125號,彰化縣和美鎮彰新路三段123、125號,24.106431,120.530614
50063,008111-5,500011,彰化南瑤郵局,彰化11支,彰化縣,彰化市,中山路二段49號,彰化縣彰化市中山路二段49號,24.068265,120.540036
50077,008112-9,500012,彰化中庄仔郵局,彰化12支,彰化縣,彰化市,彰南路一段115號,彰化縣彰化市彰南路一段115號,24.087714,120.568013
50094,008113-2,500013,彰化南郭郵局,彰化13支,彰化縣,彰化市,介壽北路88號,彰化縣彰化市介壽北路88號,24.06905,120.547992
50007,008114-6,500014,彰化師大郵局,彰化14支,彰化縣,彰化市,進德路1號,彰化縣彰化市進德路1號,24.081164,120.559184
50091,008115-0,500015,彰化莿桐腳郵局,彰化15支,彰化縣,彰化市,彰水路35-7號,彰化縣彰化市彰水路35-7號,24.061874,120.519341
50448,008117-7,500017,秀水郵局,彰化17支,彰化縣,秀水鄉,彰水路二段583號,彰化縣秀水鄉彰水路二段583號,24.030665,120.496542
50941,008118-1,500018,伸港郵局,彰化18支,彰化縣,伸港鄉,中山路100號,彰化縣伸港鄉中山路100號,24.14693,120.484615
50048,008119-4,500019,彰化曉陽郵局,彰化19支,彰化縣,彰化市,民族路267號,彰化縣彰化市民族路267號,24.07194,120.539289
50066,008120-6,500020,彰化永安街郵局,彰化20支,彰化縣,彰化市,永安街198號,彰化縣彰化市永安街198號,24.087502,120.544671
50087,008121-0,500021,彰化大竹郵局,彰化21支,彰化縣,彰化市,彰南路二段209號,彰化縣彰化市彰南路二段209號,24.084915,120.58141
50971,008122-3,500022,伸港全興郵局,彰化22支,彰化縣,伸港鄉,興工路67號,彰化縣伸港鄉興工路67號,24.171531,120.510628
50061,008123-7,500023,彰化光復路郵局,彰化23支,彰化縣,彰化市,光復路130號,彰化縣彰化市光復路130號,24.08065,120.54059
51452,008124-1,500024,溪湖郵局,彰化24支,彰化縣,溪湖鎮,彰水路三段430號,彰化縣溪湖鎮彰水路三段430號,23.962688,120.480219
51641,008125-4,500025,埔鹽郵局,彰化25支,彰化縣,埔鹽鄉,彰水路二段100號,彰化縣埔鹽鄉彰水路二段100號,23.997675,120.477017
51450,008126-8,500026,溪湖湖西郵局,彰化26支,彰化縣,溪湖鎮,大公路34號,彰化縣溪湖鎮大公路34號,23.960421,120.47553
50571,008127-1,500027,鹿港郵局,彰化27支,彰化縣,鹿港鎮,成功路1號,彰化縣鹿港鎮成功路1號,24.055409,120.432606
50649,008128-5,500028,福興郵局,彰化28支,彰化縣,福興鄉,員鹿路二段184號,彰化縣福興鄉員鹿路二段184號,24.03963,120.436017
50543,008129-9,500029,鹿港頂番郵局,彰化29支,彰化縣,鹿港鎮,鹿和路四段147號,彰化縣鹿港鎮鹿和路四段147號,24.088042,120.482641
50544,008130-1,500030,鹿港彰濱郵局,彰化30支,彰化縣,鹿港鎮,鹿草路一段449號,彰化縣鹿港鎮鹿草路一段449號,24.065519,120.436023
50662,008131-4,500031,福興福工郵局,彰化31支,彰化縣,福興鄉,福工路1號,彰化縣福興鄉福工路1號,24.01174,120.487029
50541,008132-8,500032,鹿港草港郵局,彰化32支,彰化縣,鹿港鎮,頂草路四段406號,彰化縣鹿港鎮頂草路四段406號,24.108131,120.459394
52148,008133-1,500033,北斗郵局,彰化33支,彰化縣,北斗鎮,光復路226號,彰化縣北斗鎮光復路226號,23.87489,120.52429
52341,008134-5,500034,埤頭郵局,彰化34支,彰化縣,埤頭鄉,斗苑西路187號,彰化縣埤頭鄉斗苑西路187號,23.891342,120.460862
52241,008135-9,500035,田尾郵局,彰化35支,彰化縣,田尾鄉,光復路三段26號,彰化縣田尾鄉光復路三段26號,23.892398,120.52889
52342,008136-2,500036,埤頭路口厝郵局,彰化36支,彰化縣,埤頭鄉,溪林路273號,彰化縣埤頭鄉溪林路273號,23.846839,120.460647
52446,008137-6,500037,溪州郵局,彰化37支,彰化縣,溪州鄉,中央路三段321號,彰化縣溪州鄉中央路三段321號,23.851283,120.494745
52662,008138-0,500038,二林郵局,彰化38支,彰化縣,二林鎮,仁愛路707號,彰化縣二林鎮仁愛路707號,23.900791,120.364756
52773,008139-3,500039,大城郵局,彰化39支,彰化縣,大城鄉,北平路35號,彰化縣大城鄉北平路35號,23.856001,120.321688
52864,008140-5,500040,芳苑郵局,彰化40支,彰化縣,芳苑鄉,斗苑路芳苑段231號,彰化縣芳苑鄉斗苑路芳苑段231號,23.9247,120.31905
52541,008141-9,500041,竹塘郵局,彰化41支,彰化縣,竹塘鄉,竹林路一段366號,彰化縣竹塘鄉竹林路一段366號,23.86096,120.426964
52657,008142-2,500042,二林萬興郵局,彰化42支,彰化縣,二林鎮,二溪路六段290號,彰化縣二林鎮二溪路六段290號,23.954484,120.422885
52860,008143-6,500043,芳苑王功郵局,彰化43支,彰化縣,芳苑鄉,芳漢路王功段300、302號,彰化縣芳苑鄉芳漢路王功段300、302號,23.960818,120.337494
52858,008144-0,500044,芳苑草湖郵局,彰化44支,彰化縣,芳苑鄉,建平村二溪路草二段462號,彰化縣芳苑鄉建平村二溪路草二段462號,23.958081,120.382849
51044,008145-3,500045,員林郵局,彰化45支,彰化縣,員林市,員東路二段490號,彰化縣員林市員東路二段490號,23.957667,120.577349
51547,008146-7,500046,大村郵局,彰化46支,彰化縣,大村鄉,大溪路2號,彰化縣大村鄉大溪路2號,23.993927,120.544693
51347,008147-1,500047,埔心郵局,彰化47支,彰化縣,埔心鄉,忠義北路70號,彰化縣埔心鄉忠義北路70號,23.954156,120.54319
51061,008148-4,500048,員林員水路郵局,彰化48支,彰化縣,員林市,員水路一段338號,彰化縣員林市員水路一段338號,23.951286,120.597155
51050,008149-8,500049,員林三橋郵局,彰化49支,彰化縣,員林市,大同路二段137號,彰化縣員林市大同路二段137號,23.968903,120.575786
51048,008150-0,500050,員林西門郵局,彰化50支,彰化縣,員林市,新生路85號,彰化縣員林市新生路85號,23.95831,120.5686
51247,008151-3,500051,永靖郵局,彰化51支,彰化縣,永靖鄉,永靖街27號,彰化縣永靖鄉永靖街27號,23.920383,120.546814
51045,008152-7,500052,員林南門郵局,彰化52支,彰化縣,員林市,中正路63、65號,彰化縣員林市中正路63、65號,23.950803,120.575761
51346,008153-1,500053,埔心太平郵局,彰化53支,彰化縣,埔心鄉,中山路66、68號,彰化縣埔心鄉中山路66、68號,23.938795,120.559248
51041,008154-4,500054,員林中正路郵局,彰化54支,彰化縣,員林市,中正路457號,彰化縣員林市中正路457號,23.9585,120.57221
51147,008155-8,500055,社頭郵局,彰化55支,彰化縣,社頭鄉,員集路二段195號,彰化縣社頭鄉員集路二段195號,23.898206,120.587738
51151,008156-1,500056,社頭湳雅郵局,彰化56支,彰化縣,社頭鄉,山腳路三段325號,彰化縣社頭鄉山腳路三段325號,23.919227,120.604638
53043,008157-5,500057,二水郵局,彰化57支,彰化縣,二水鄉,員集路三段741號,彰化縣二水鄉員集路三段741號,23.811275,120.615522
52048,008158-9,500058,田中郵局,彰化58支,彰化縣,田中鎮,員集路二段305號,彰化縣田中鎮員集路二段305號,23.856875,120.585877
52044,008159-2,500059,田中內灣郵局,彰化59支,彰化縣,田中鎮,中南路二段430號,彰化縣田中鎮中南路二段430號,23.852796,120.605291
52047,008160-4,500060,田中三潭郵局,彰化60支,彰化縣,田中鎮,員集路二段616號,彰化縣田中鎮員集路二段616號,23.863606,120.58552
50853,008161-8,500061,和美道周郵局,彰化61支,彰化縣,和美鎮,山犁里道周路458、460號,彰化縣和美鎮山犁里道周路458、460號,24.108985,120.494406
97054,009100-3,970000,花蓮國安郵局,花蓮901支,花蓮縣,花蓮市,中山路408號,花蓮縣花蓮市中山路408號,23.984169,121.604241
97048,009101-7,970001,花蓮舊車站郵局,花蓮1支,花蓮縣,花蓮市,中山路92號,花蓮縣花蓮市中山路92號,23.975538,121.610828
97043,009102-1,970002,花蓮南京街郵局,花蓮2支,花蓮縣,花蓮市,南京街221號,花蓮縣花蓮市南京街221號,23.9753598,121.607365
97145,009104-8,970004,新城北埔郵局,花蓮4支,花蓮縣,新城鄉,大漢村光復路578號,花蓮縣新城鄉大漢村光復路578號,24.0324148,121.6040972
97253,009105-1,970005,秀林天祥郵局,花蓮5支,花蓮縣,秀林鄉,富世村天祥21號,花蓮縣秀林鄉富世村天祥21號,24.1830688,121.492748
97161,009106-5,970006,新城郵局,花蓮6支,花蓮縣,新城鄉,新城村中山路45號,花蓮縣新城鄉新城村中山路45號,24.1262761,121.6507232
97060,009107-9,970007,花蓮府前路郵局,花蓮7支,花蓮縣,花蓮市,府前路146號,花蓮縣花蓮市府前路146號,23.9905166,121.6196084
97365,009108-2,970008,吉安郵局,花蓮8支,花蓮縣,吉安鄉,慶豐村吉安路二段280號,花蓮縣吉安鄉慶豐村吉安路二段280號,23.9784239,121.564483
97063,009109-6,970009,花蓮下美崙郵局,花蓮9支,花蓮縣,花蓮市,民權路132號,花蓮縣花蓮市民權路132號,23.9937569,121.628923
97352,009110-8,970010,吉安仁里郵局,花蓮10支,花蓮縣,吉安鄉,仁里村中正路一段48號,花蓮縣吉安鄉仁里村中正路一段48號,23.9674879,121.590615
97059,009111-1,970011,花蓮港務局郵局,花蓮11支,花蓮縣,花蓮市,民權路27號,花蓮縣花蓮市民權路27號,23.9833389,121.619465
97291,009112-5,970012,秀林和平郵局,花蓮12支,花蓮縣,秀林鄉,和平村113號,花蓮縣秀林鄉和平村113號,24.2946066,121.4576376
97044,009113-9,970013,花蓮中華路郵局,花蓮13支,花蓮縣,花蓮市,中華路335-5號,花蓮縣花蓮市中華路335-5號,23.9747451,121.5948051
97068,009114-2,970014,花蓮富國路郵局,花蓮14支,花蓮縣,花蓮市,富國路52號,花蓮縣花蓮市富國路52號,23.9909145,121.5934609
97445,009115-6,970015,壽豐郵局,花蓮15支,花蓮縣,壽豐鄉,壽豐村中山路六段57號,花蓮縣壽豐鄉壽豐村中山路六段57號,23.8715054,121.5081741
97446,009116-0,970016,壽豐豐田郵局,花蓮16支,花蓮縣,壽豐鄉,豐山村中山路127巷16弄5號,花蓮縣壽豐鄉豐山村中山路127巷16弄5號,23.9058579,121.4919562
97441,009117-3,970017,壽豐志學郵局,花蓮17支,花蓮縣,壽豐鄉,志學村中山路二段202號,花蓮縣壽豐鄉志學村中山路二段202號,23.895711,121.527699
97342,009118-7,970018,吉安宜昌郵局,花蓮18支,花蓮縣,吉安鄉,中華路二段83號,花蓮縣吉安鄉中華路二段83號,23.9737598,121.5827421
97050,009119-1,970019,花蓮中山路郵局,花蓮19支,花蓮縣,花蓮市,中山路188號,花蓮縣花蓮市中山路188號,23.9783691,121.6062504
97064,009120-2,970020,花蓮師院郵局,花蓮20支,花蓮縣,花蓮市,華西路123號,花蓮縣花蓮市華西路123號,24.0102801,121.6158239
97368,009121-6,970021,吉安太昌郵局,花蓮21支,花蓮縣,吉安鄉,永安村吉安路一段35號,花蓮縣吉安鄉永安村吉安路一段35號,23.9916763,121.5730915
97545,009122-0,970022,鳳林郵局,花蓮22支,花蓮縣,鳳林鎮,光復路14號,花蓮縣鳳林鎮光復路14號,23.746051,121.447442
97543,009123-3,970023,鳳林萬榮郵局,花蓮23支,花蓮縣,鳳林鎮,長橋路133號,花蓮縣鳳林鎮長橋路133號,23.7130414,121.4186683
97542,009124-7,970024,鳳林林榮郵局,花蓮24支,花蓮縣,鳳林鎮,林榮路165號,花蓮縣鳳林鎮林榮路165號,23.8035431,121.4498689
97645,009125-1,970025,光復郵局,花蓮25支,花蓮縣,光復鄉,中正路一段124號,花蓮縣光復鄉中正路一段124號,23.6653316,121.4225043
97791,009127-8,970027,豐濱郵局,花蓮27支,花蓮縣,豐濱鄉,光豐路48號,花蓮縣豐濱鄉光豐路48號,23.601829,121.518307
97643,009128-1,970028,光復富田郵局,花蓮28支,花蓮縣,光復鄉,富田一街36號之1,花蓮縣光復鄉富田一街36號之1,23.6596132,121.4465216
97841,009129-5,970029,瑞穗郵局,花蓮29支,花蓮縣,瑞穗鄉,中山路一段120號,花蓮縣瑞穗鄉中山路一段120號,23.4968813,121.377605
97843,009130-7,970030,瑞穗富源郵局,花蓮30支,花蓮縣,瑞穗鄉,富源村中正路88號,花蓮縣瑞穗鄉富源村中正路88號,23.5788449,121.375961
98142,009131-1,970031,玉里郵局,花蓮31支,花蓮縣,玉里鎮,光復路111號,花蓮縣玉里鎮光復路111號,23.3310639,121.311727
98142,009132-4,970032,玉里泰昌郵局,花蓮32支,花蓮縣,玉里鎮,中山路二段139號,花蓮縣玉里鎮中山路二段139號,23.3357583,121.3117916
98249,009133-8,970033,卓溪郵局,花蓮33支,花蓮縣,卓溪鄉,中正路61-1號,花蓮縣卓溪鄉中正路61-1號,23.3328002,121.3137835
98191,009134-1,970034,玉里三民郵局,花蓮34支,花蓮縣,玉里鎮,三民里90-3號,花蓮縣玉里鎮三民里90-3號,23.4298744,121.3468298
98142,009135-5,970035,玉里新興郵局,花蓮35支,花蓮縣,玉里鎮,新興街91號,花蓮縣玉里鎮新興街91號,23.338844,121.31843
98341,009136-9,970036,富里郵局,花蓮36支,花蓮縣,富里鄉,中山路169號,花蓮縣富里鄉中山路169號,23.1765159,121.246053
98392,009137-2,970037,富里東里郵局,花蓮37支,花蓮縣,富里鄉,東里村道化路9號,花蓮縣富里鄉東里村道化路9號,23.2681358,121.3021328
97143,009138-6,970038,花蓮空軍基地郵局,花蓮38支,花蓮縣,新城鄉,嘉新村花師街37號,花蓮縣新城鄉嘉新村花師街37號,24.0164552,121.620775
97447,009139-0,970039,壽豐東華大學郵局,花蓮39支,花蓮縣,壽豐鄉,志學村大學路二段1號,花蓮縣壽豐鄉志學村大學路二段1號,23.8944766,121.5457334
26044,011100-0,260000,宜蘭中山路郵局,宜蘭901支,宜蘭縣,宜蘭市,中山路3段130號,宜蘭縣宜蘭市中山路3段130號,24.758323,121.753012
26051,011101-3,260001,宜蘭金六結郵局,宜蘭1支,宜蘭縣,宜蘭市,復興路3段100號,宜蘭縣宜蘭市復興路3段100號,24.751581,121.739136
26047,011102-7,260002,宜蘭渭水路郵局,宜蘭2支,宜蘭縣,宜蘭市,中山路2段275號,宜蘭縣宜蘭市中山路2段275號,24.753188,121.752568
26441,011103-1,260003,員山郵局,宜蘭3支,宜蘭縣,員山鄉,員山路1段299號,宜蘭縣員山鄉員山路1段299號,24.743924,121.724589
26444,011104-4,260004,員山內城郵局,宜蘭4支,宜蘭縣,員山鄉,榮光路353號,宜蘭縣員山鄉榮光路353號,24.72112,121.68815
26044,011105-8,260005,宜蘭西後街郵局,宜蘭5支,宜蘭縣,宜蘭市,西後街2-1號,宜蘭縣宜蘭市西後街2-1號,24.75542,121.751321
26344,011106-1,260006,壯圍郵局,宜蘭6支,宜蘭縣,壯圍鄉,壯五路327號,宜蘭縣壯圍鄉壯五路327號,24.746906,121.784349
26057,011108-9,260008,宜蘭東港路郵局,宜蘭8支,宜蘭縣,宜蘭市,東港路2段216號,宜蘭縣宜蘭市東港路2段216號,24.751998,121.765568
26054,011109-2,260009,宜蘭大坡路郵局,宜蘭9支,宜蘭縣,宜蘭市,大坡路2段225號,宜蘭縣宜蘭市大坡路2段225號,24.77946,121.740746
26047,011110-4,260010,宜蘭大學郵局,宜蘭10支,宜蘭縣,宜蘭市,神農路1段1號,宜蘭縣宜蘭市神農路1段1號,24.747809,121.745735
26144,011111-8,260011,頭城郵局,宜蘭11支,宜蘭縣,頭城鎮,民鋒路15號,宜蘭縣頭城鎮民鋒路15號,24.858517,121.823176
26145,011112-1,260012,頭城大溪港郵局,宜蘭12支,宜蘭縣,頭城鎮,濱海路5段153號,宜蘭縣頭城鎮濱海路5段153號,24.939446,121.891365
26147,011113-5,260013,頭城頂埔郵局,宜蘭13支,宜蘭縣,頭城鎮,青雲路2段299號,宜蘭縣頭城鎮青雲路2段299號,24.845451,121.807104
26243,011114-9,260014,礁溪郵局,宜蘭14支,宜蘭縣,礁溪鄉,礁溪路4段130號,宜蘭縣礁溪鄉礁溪路4段130號,24.821587,121.769941
26245,011115-2,260015,礁溪四城郵局,宜蘭15支,宜蘭縣,礁溪鄉,站前路19號,宜蘭縣礁溪鄉站前路19號,24.786977,121.76221
26242,011116-6,260016,礁溪湯仔城郵局,宜蘭16支,宜蘭縣,礁溪鄉,中山路2段196號,宜蘭縣礁溪鄉中山路2段196號,24.827307,121.774452
26060,011117-0,260017,宜蘭縣政府郵局,宜蘭17支,宜蘭縣,宜蘭市,縣政北路1號,宜蘭縣宜蘭市縣政北路1號,24.730606,121.76286
27041,011118-3,260018,蘇澳郵局,宜蘭18支,宜蘭縣,蘇澳鎮,中山路1段1號,宜蘭縣蘇澳鎮中山路1段1號,24.596114,121.853279
27042,011119-7,260019,蘇澳南方澳郵局,宜蘭19支,宜蘭縣,蘇澳鎮,江夏路13號,宜蘭縣蘇澳鎮江夏路13號,24.581706,121.86497
27047,011120-9,260020,蘇澳港邊里郵局,宜蘭20支,宜蘭縣,蘇澳鎮,蘇濱路1段301號,宜蘭縣蘇澳鎮蘇濱路1段301號,24.613042,121.849982
27050,011121-2,260021,蘇澳馬賽郵局,宜蘭21支,宜蘭縣,蘇澳鎮,大同路226號,宜蘭縣蘇澳鎮大同路226號,24.625723,121.833498
27044,011122-6,260022,蘇澳蘇西里郵局,宜蘭22支,宜蘭縣,蘇澳鎮,中山路1段253號,宜蘭縣蘇澳鎮中山路1段253號,24.595537,121.844004
27291,011123-0,260023,蘇澳東澳路郵局,宜蘭23支,宜蘭縣,南澳鄉,蘇花路3段171號,宜蘭縣南澳鄉蘇花路3段171號,24.519709,121.832399
27241,011124-3,260024,南澳郵局,宜蘭24支,宜蘭縣,南澳鄉,蘇花路2段351號,宜蘭縣南澳鄉蘇花路2段351號,24.465357,121.802872
26541,011125-7,260025,羅東郵局,宜蘭25支,宜蘭縣,羅東鎮,興東路69號,宜蘭縣羅東鎮興東路69號,24.6775,121.768221
26847,011126-1,260026,五結二結郵局,宜蘭26支,宜蘭縣,五結鄉,二結路27號,宜蘭縣五結鄉二結路27號,24.702866,121.768003
26946,011127-4,260027,冬山郵局,宜蘭27支,宜蘭縣,冬山鄉,冬山路177號,宜蘭縣冬山鄉冬山路177號,24.634438,121.791597
26546,011128-8,260028,羅東南門郵局,宜蘭28支,宜蘭縣,羅東鎮,中正南路102號,宜蘭縣羅東鎮中正南路102號,24.670122,121.771648
26550,011129-1,260029,羅東大同路郵局,宜蘭29支,宜蘭縣,羅東鎮,大同路44-6號,宜蘭縣羅東鎮大同路44-6號,24.679666,121.773635
26845,011130-3,260030,五結郵局,宜蘭30支,宜蘭縣,五結鄉,自強路165、167號,宜蘭縣五結鄉自強路165、167號,24.683783,121.795103
26942,011131-7,260031,冬山群英郵局,宜蘭31支,宜蘭縣,冬山鄉,義成路3段482號,宜蘭縣冬山鄉義成路3段482號,24.667077,121.768077
26841,011132-1,260032,五結利澤郵局,宜蘭32支,宜蘭縣,五結鄉,利成路2段468號,宜蘭縣五結鄉利成路2段468號,24.667774,121.822058
26544,011133-4,260033,羅東西門郵局,宜蘭33支,宜蘭縣,羅東鎮,中山路4段235號,宜蘭縣羅東鎮中山路4段235號,24.67302,121.758389
26562,011134-8,260034,羅東竹林郵局,宜蘭34支,宜蘭縣,羅東鎮,復興路2段193號,宜蘭縣羅東鎮復興路2段193號,24.689406,121.764991
26641,011135-1,260035,三星郵局,宜蘭35支,宜蘭縣,三星鄉,太平路134號,宜蘭縣三星鄉太平路134號,24.666605,121.652492
26741,011136-5,260036,大同郵局,宜蘭36支,宜蘭縣,大同鄉,崙埤村泰雅路1段58號,宜蘭縣大同鄉崙埤村泰雅路1段58號,24.675797,121.609769
33043,012100-6,330000,桃園成功路郵局,桃園901支,桃園市,桃園區,成功路一段51號,桃園市桃園區成功路一段51號,24.992567,121.311098
33379,012101-0,330001,龜山大崗郵局,桃園1支,桃園市,龜山區,大崗里新興街99號,桃園市龜山區大崗里新興街99號,25.050722,121.357511
33450,012102-3,330002,八德大湳郵局,桃園2支,桃園市,八德區,介壽路一段842號,桃園市八德區介壽路一段842號,24.961527,121.299549
33451,012103-7,330003,八德郵局,桃園3支,桃園市,八德區,建國路18號,桃園市八德區建國路18號,24.931088,121.284865
33041,012104-1,330004,桃園民生路郵局,桃園4支,桃園市,桃園區,民生路246-1號,桃園市桃園區民生路246-1號,24.995275,121.312797
33343,012105-4,330005,龜山郵局,桃園5支,桃園市,龜山區,豐美街2-1號,桃園市龜山區豐美街2-1號,24.993172,121.334484
33344,012106-8,330006,龜山民安街郵局,桃園6支,桃園市,龜山區,民安街120號,桃園市龜山區民安街120號,24.989855,121.324636
33058,012107-1,330007,桃園南門郵局,桃園7支,桃園市,桃園區,中山路362號,桃園市桃園區中山路362號,24.993011,121.304575
33068,012108-5,330008,桃園大樹林郵局,桃園8支,桃園市,桃園區,大誠路9號,桃園市桃園區大誠路9號,24.983832,121.322274
33858,012109-9,330009,蘆竹郵局,桃園9支,桃園市,蘆竹區,南山路一段105號,桃園市蘆竹區南山路一段105號,25.055956,121.290577
33057,012110-1,330010,桃園茄苳郵局,桃園10支,桃園市,桃園區,龍安街12號,桃園市桃園區龍安街12號,24.987452,121.282012
33043,012111-4,330011,桃園東埔郵局,桃園11支,桃園市,桃園區,中正二街15號,桃園市桃園區中正二街15號,25.001532,121.307739
33059,012112-8,330012,桃園中路郵局,桃園12支,桃園市,桃園區,壽昌街20巷27-1號及27-2號,桃園市桃園區壽昌街20巷27-1號及27-2號,24.989912,121.292904
33051,012113-1,330013,桃園水汴頭郵局,桃園13支,桃園市,桃園區,春日路1360號,桃園市桃園區春日路1360號,25.027054,121.305892
33062,012114-5,330014,桃園福林郵局,桃園14支,桃園市,桃園區,介壽路316及316-1號,桃園市桃園區介壽路316及316-1號,24.981328,121.306438
33059,012115-9,330015,桃園永安郵局,桃園15支,桃園市,桃園區,永安路365號,桃園市桃園區永安路365號,25.000808,121.29977
33068,012116-2,330016,桃園桃鶯郵局,桃園16支,桃園市,桃園區,桃鶯路354、356號,桃園市桃園區桃鶯路354、356號,24.978053,121.322211
33305,012117-6,330017,龜山樂善郵局,桃園17支,桃園市,龜山區,復興街5號(林口長庚醫院內),桃園市龜山區復興街5號(林口長庚醫院內),25.061579,121.366796
33447,012118-0,330018,八德更寮腳郵局,桃園18支,桃園市,八德區,介壽路2段1030號,桃園市八德區介壽路2段1030號,24.932995,121.297385
33350,012119-3,330019,龜山迴龍郵局,桃園19支,桃園市,龜山區,萬壽路1段374、376號,桃園市龜山區萬壽路1段374、376號,25.017149,121.401014
33050,012120-5,330020,桃園大業郵局,桃園20支,桃園市,桃園區,大業路1段372號,桃園市桃園區大業路1段372號,25.013488,121.312215
33053,012121-9,330021,桃園府前郵局,桃園21支,桃園市,桃園區,縣府路326、328、330號,桃園市桃園區縣府路326、328、330號,24.992796,121.300593
33455,012122-2,330022,八德高城郵局,桃園22支,桃園市,八德區,永豐路581號,桃園市八德區永豐路581號,24.97539,121.271384
33062,012123-6,330023,桃園建國郵局,桃園23支,桃園市,桃園區,建國路156-8號,桃園市桃園區建國路156-8號,24.985598,121.309725
33445,012124-0,330024,八德麻園郵局,桃園24支,桃園市,八德區,介壽路2段298號,桃園市八德區介壽路2段298號,24.949758,121.297807
33377,012125-3,330025,龜山文化郵局,桃園25支,桃園市,龜山區,文化里文昌一街102號,桃園市龜山區文化里文昌一街102號,25.057385,121.369913
33851,012126-7,330026,蘆竹山腳郵局,桃園26支,桃園市,蘆竹區,南山路3段270、272號,桃園市蘆竹區南山路3段270、272號,25.0848,121.286167
33862,012127-1,330027,蘆竹大竹郵局,桃園27支,桃園市,蘆竹區,大竹路385號,桃園市蘆竹區大竹路385號,25.020572,121.264702
33304,012128-4,330028,龜山誠園郵局,桃園28支,桃園市,龜山區,樹人路56號,桃園市龜山區樹人路56號,25.046187,121.351759
33859,012129-8,330029,蘆竹錦興郵局,桃園29支,桃園市,蘆竹區,南崁路1段190號,桃園市蘆竹區南崁路1段190號,25.053064,121.286077
33044,012130-0,330030,桃園慈文郵局,桃園30支,桃園市,桃園區,經國路280、286號,桃園市桃園區經國路280、286號,25.02201,121.30342
33741,012131-3,330031,大園郵局,桃園31支,桃園市,大園區,中山北路85號,桃園市大園區中山北路85號,25.066127,121.196903
33745,012132-7,330032,大園埔心街郵局,桃園32支,桃園市,大園區,埔心街50號,桃園市大園區埔心街50號,25.053006,121.224189
33754,012133-1,330033,大園?林郵局,桃園33支,桃園市,大園區,?林里3鄰?林路99號,桃園市大園區?林里3鄰?林路99號,25.076087,121.258071
33758,012135-8,330035,臺灣桃園國際機場郵局,桃園35支,桃園市,大園區,臺灣桃園國際機場第二 航站大廈內,桃園市大園區臺灣桃園國際機場第二 航站大廈內,25.076808,121.232189
33302,012136-1,330036,龜山長庚大學郵局,桃園36支,桃園市,龜山區,文化一路259號(長庚大學活動中心內),桃園市龜山區文化一路259號(長庚大學活動中心內),25.032733,121.391122
33557,012137-5,330037,大溪郵局,桃園37支,桃園市,大溪區,康莊路210號,桃園市大溪區康莊路210號,24.879435,121.288262
33845,012138-9,330038,蘆竹光明郵局,桃園38支,桃園市,蘆竹區,南福街187、189號,桃園市蘆竹區南福街187、189號,25.039005,121.293539
33641,012139-2,330039,復興郵局,桃園39支,桃園市,復興區,中正路62號,桃園市復興區中正路62號,24.815853,121.351322
33543,012140-4,330040,大溪僑愛郵局,桃園40支,桃園市,大溪區,介壽路42、44號,桃園市大溪區介壽路42、44號,24.922813,121.295019
33544,012141-8,330041,大溪崎頂郵局,桃園41支,桃園市,大溪區,介壽路890號,桃園市大溪區介壽路890號,24.900362,121.283753
33561,012142-1,330042,大溪員樹林郵局,桃園42支,桃園市,大溪區,齋明街1號,桃園市大溪區齋明街1號,24.885773,121.270245
33548,012143-5,330043,大溪南興郵局,桃園43支,桃園市,大溪區,仁和路2段126號,桃園市大溪區仁和路2段126號,24.903401,121.26688
32041,028100-1,320000,中壢郵局,桃園44支,桃園市,中壢區,建國路36號,桃園市中壢區建國路36號,24.955735,121.225216
32082,028101-5,320001,中壢普仁郵局,桃園45支,桃園市,中壢區,中山東路2段24號,桃園市中壢區中山東路2段24號,24.95425,121.237364
32067,028102-9,320002,中壢內壢郵局,桃園46支,桃園市,中壢區,忠勤街25號,桃園市中壢區忠勤街25號,24.974402,121.255753
32092,028103-2,320003,中壢龍東路郵局,桃園47支,桃園市,中壢區,龍東路750號,桃園市中壢區龍東路750號,24.938655,121.259386
32094,028104-6,320004,中壢龍岡郵局,桃園48支,桃園市,中壢區,龍岡路3段756號,桃園市中壢區龍岡路3段756號,24.925675,121.243602
32850,028105-0,320005,觀音新坡郵局,桃園49支,桃園市,觀音區,大同里新華路2段596號,桃園市觀音區大同里新華路2段596號,25.011179,121.137494
32446,028106-3,320006,平鎮廣明郵局,桃園50支,桃園市,平鎮區,廣明路71.73號1樓,桃園市平鎮區廣明路71.73號1樓,24.953792,121.213704
32071,028107-7,320007,中壢自立郵局,桃園51支,桃園市,中壢區,莊敬路856號1樓,桃園市中壢區莊敬路856號1樓,24.963992,121.254168
32445,028108-1,320008,平鎮郵局,桃園52支,桃園市,平鎮區,延平路2段221號,桃園市平鎮區延平路2段221號,24.945645,121.209231
32001,028109-4,320009,中央大學郵局,桃園53支,桃園市,中壢區,國立中央大學內,桃園市中壢區國立中央大學內,24.965685,121.194614
32843,028110-6,320010,觀音郵局,桃園54支,桃園市,觀音區,中山路40號,桃園市觀音區中山路40號,25.035173,121.084546
32068,028111-0,320011,中壢忠義郵局,桃園55支,桃園市,中壢區,中華路1段905、907號,桃園市中壢區中華路1段905、907號,24.966915,121.244233
32023,028112-3,320012,中原大學郵局,桃園56支,桃園市,中壢區,私立中原大學內,桃園市中壢區私立中原大學內,24.959135,121.241303
32086,028113-7,320013,中壢興國郵局,桃園57支,桃園市,中壢區,元化路2段126號,桃園市中壢區元化路2段126號,24.962817,121.219295
32472,028114-1,320014,平鎮山仔頂郵局,桃園58支,桃園市,平鎮區,中豐路山頂段296號,桃園市平鎮區中豐路山頂段296號,24.8974,121.210966
32077,028115-4,320015,中壢華勛郵局,桃園59支,桃園市,中壢區,幸福新村1號,桃園市中壢區幸福新村1號,24.955234,121.26447
32096,028116-8,320016,中壢東興郵局,桃園60支,桃園市,中壢區,龍岡路1段229號,桃園市中壢區龍岡路1段229號,24.94774,121.226083
32470,028117-1,320017,平鎮北勢郵局,桃園61支,桃園市,平鎮區,金陵路2段59號,桃園市平鎮區金陵路2段59號,24.941893,121.222922
32092,028118-5,320018,中壢仁美郵局,桃園62支,桃園市,中壢區,龍文街29號,桃園市中壢區龍文街29號,24.93553,121.255481
32063,028119-9,320019,中壢南園郵局,桃園63支,桃園市,中壢區,南園二路4號,桃園市中壢區南園二路4號,24.971944,121.238216
32073,028120-1,320020,中壢頂壢郵局,桃園64支,桃園市,中壢區,榮民路53、55號,桃園市中壢區榮民路53、55號,24.969352,121.26089
32046,028121-4,320021,中壢志廣郵局,桃園65支,桃園市,中壢區,中央西路2段271、273號,桃園市中壢區中央西路2段271、273號,24.961399,121.211641
32464,028122-8,320022,平鎮金陵郵局,桃園66支,桃園市,平鎮區,金陵路3段235-1、235-2號,桃園市平鎮區金陵路3段235-1、235-2號,24.924782,121.228008
32744,028123-1,320023,新屋永安郵局,桃園67支,桃園市,新屋區,中山西路3段222、224號,桃園市新屋區中山西路3段222、224號,24.987883,121.041112
32853,028124-5,320024,觀音工業區郵局,桃園68支,桃園市,觀音區,工業五路3號(觀音工業區管理中心內),桃園市觀音區工業五路3號(觀音工業區管理中心內),25.053121,121.118017
32748,028125-9,320025,新屋郵局,桃園69支,桃園市,新屋區,中山路279號,桃園市新屋區中山路279號,24.972529,121.104467
32070,028126-2,320026,中壢環北郵局,桃園70支,桃園市,中壢區,環北路413號,桃園市中壢區環北路413號,24.966069,121.226183
32450,028127-6,320027,平鎮高雙郵局,桃園71支,桃園市,平鎮區,高雙路181號,桃園市平鎮區高雙路181號,24.954509,121.189503
32052,028128-0,320028,中壢大崙郵局,桃園72支,桃園市,中壢區,中正路4段85、87號,桃園市中壢區中正路4段85、87號,24.988664,121.803389
32455,028129-3,320029,平鎮南勢郵局,桃園73支,桃園市,平鎮區,興安路120號,桃園市平鎮區興安路120號,24.917352,121.209133
32552,028130-5,320030,龍潭郵局,桃園74支,桃園市,龍潭區,中正路151號,桃園市龍潭區中正路151號,24.866668,121.216917
32547,028131-9,320031,龍潭大平郵局,桃園75支,桃園市,龍潭區,中正路三坑段743號,桃園市龍潭區中正路三坑段743號,24.831729,121.244306
32547,028132-2,320032,龍潭石門水庫郵局,桃園76支,桃園市,龍潭區,佳安路3號,桃園市龍潭區佳安路3號,24.834675,121.241109
32546,028133-6,320033,桃園客家文化館郵局,桃園77支,桃園市,龍潭區,中正路三林段500號,桃園市龍潭區中正路三林段500號,24.845481,121.234542
32551,028134-0,320034,龍潭中興郵局,桃園78支,桃園市,龍潭區,中興路280號,桃園市龍潭區中興路280號,24.874227,121.234081
32550,028136-7,320036,龍潭烏林郵局,桃園80支,桃園市,龍潭區,中豐路508號,桃園市龍潭區中豐路508號,24.88336,121.21217
32546,028137-1,320037,龍潭核研所郵局,桃園81支,桃園市,龍潭區,文化路1000號(行政院核能研究所內),桃園市龍潭區文化路1000號(行政院核能研究所內),24.85422,121.253261
32571,028138-4,320038,龍潭南龍郵局,桃園82支,桃園市,龍潭區,南龍路70號,桃園市龍潭區南龍路70號,24.863885,121.212224
32543,028139-8,320039,龍潭高原郵局,桃園83支,桃園市,龍潭區,中原路1段573號,桃園市龍潭區中原路1段573號,24.846288,121.198756
32643,028140-0,320040,楊梅郵局,桃園84支,桃園市,楊梅區,大平街7號,桃園市楊梅區大平街7號,24.910675,121.147608
32665,028141-3,320041,楊梅大同郵局,桃園85支,桃園市,楊梅區,中山北路1段168號,桃園市楊梅區中山北路1段168號,24.908057,121.153281
32649,028142-7,320042,楊梅富岡郵局,桃園86支,桃園市,楊梅區,富岡里中華街48號,桃園市楊梅區富岡里中華街48號,24.935099,121.081661
32654,028143-1,320043,楊梅埔心里郵局,桃園87支,桃園市,楊梅區,中興路25號,桃園市楊梅區中興路25號,24.918878,121.184212
32657,028144-4,320044,楊梅幼工郵局,桃園88支,桃園市,楊梅區,獅二路2號(幼獅工業區管理中心內),桃園市楊梅區獅二路2號(幼獅工業區管理中心內),24.926288,121.174512
32847,028145-8,320045,觀音草漯郵局,桃園89支,桃園市,觀音區,大觀路2段32之1號,桃園市觀音區大觀路2段32之1號,25.04809,121.143514
32661,028146-1,320046,楊梅高榮郵局,桃園90支,桃園市,楊梅區,電研路240號,桃園市楊梅區電研路240號,24.956351,121.167353
32643,028147-5,320047,楊梅光華郵局,桃園91支,桃園市,楊梅區,金德路51號,桃園市楊梅區金德路51號,24.916004,121.145876
32664,028148-9,320048,楊梅秀才郵局,桃園92支,桃園市,楊梅區,秀才路205號,桃園市楊梅區秀才路205號,24.901124,121.140858
32659,028149-2,320049,楊梅瑞塘郵局,桃園93支,桃園市,楊梅區,萬大路116巷46、48、50號1樓,桃園市楊梅區萬大路116巷46、48、50號1樓,24.909796,121.176567
73065,019100-1,730000,新營郵局,臺南65支,臺南市,新營區,中山路126號,臺南市新營區中山路126號,23.305143,120.317909
73048,019101-4,730001,新營新進路郵局,臺南66支,臺南市,新營區,新進路316號,臺南市新營區新進路316號,23.301473,120.315287
73047,019102-8,730002,新營民治路郵局,臺南67支,臺南市,新營區,民治路27-13號,臺南市新營區民治路27-13號,23.310789,120.31765
73663,019103-1,730003,柳營郵局,臺南68支,臺南市,柳營區,柳營路一段745號,臺南市柳營區柳營路一段745號,23.27402,120.313096
73049,019104-5,730004,新營民生郵局,臺南69支,臺南市,新營區,三民路180-3號,臺南市新營區三民路180-3號,23.305226,120.308293
73143,019105-9,730005,後壁郵局,臺南70支,臺南市,後壁區,後壁村1-15號,臺南市後壁區後壁村1-15號,23.365388,120.362622
73146,019106-2,730006,後壁菁寮郵局,臺南71支,臺南市,後壁區,菁寮里79-1號,臺南市後壁區菁寮里79-1號,23.37889,120.334811
73747,019107-6,730007,鹽水郵局,臺南72支,臺南市,鹽水區,中山路6號,臺南市鹽水區中山路6號,23.320138,120.267091
73062,019108-0,730008,新營太子宮郵局,臺南73支,臺南市,新營區,太北里9-5號,臺南市新營區太北里9-5號,23.294834,120.278987
73150,019109-3,730009,後壁安溪寮郵局,臺南74支,臺南市,後壁區,福安里下寮102-16號,臺南市後壁區福安里下寮102-16號,23.331001,120.354293
73742,019110-5,730010,鹽水茄苳腳郵局,臺南75支,臺南市,鹽水區,忠孝路54號,臺南市鹽水區忠孝路54號,23.310855,120.275145
73541,019111-9,730011,下營郵局,臺南76支,臺南市,下營區,慈惠街129號,臺南市下營區慈惠街129號,23.236085,120.26551
73443,019112-2,730012,六甲郵局,臺南77支,臺南市,六甲區,民生街2號,臺南市六甲區民生街2號,23.227133,120.351632
73242,019113-6,730013,白河郵局,臺南78支,臺南市,白河區,三民路410號,臺南市白河區三民路410號,23.351633,120.416252
73351,019114-0,730014,東山郵局,臺南79支,臺南市,東山區,東中里新東路1段18號,臺南市東山區東中里新東路1段18號,23.322858,120.402449
73256,019115-3,730015,白河內角郵局,臺南80支,臺南市,白河區,內角里24-1號,臺南市白河區內角里24-1號,23.398534,120.439088
73257,019116-7,730016,白河仙草埔郵局,臺南81支,臺南市,白河區,仙草里仙草63-1號,臺南市白河區仙草里仙草63-1號,23.343925,120.476351
73352,019117-1,730017,東山東原郵局,臺南82支,臺南市,東山區,東原里170號,臺南市東山區東原里170號,23.26562,120.444441
73659,019118-4,730018,柳營重溪郵局,臺南83支,臺南市,柳營區,重溪里12-4號,臺南市柳營區重溪里12-4號,23.287595,120.36617
73543,019119-8,730019,下營中營郵局,臺南84支,臺南市,下營區,中營里893號,臺南市下營區中營里893號,23.218541,120.277769
71241,019120-0,730020,新化郵局,臺南85支,臺南市,新化區,中正路312號,臺南市新化區中正路312號,23.032328,120.308798
74341,019121-3,730021,山上郵局,臺南86支,臺南市,山上區,山上里250號,臺南市山上區山上里250號,23.101268,120.355918
71341,019122-7,730022,左鎮郵局,臺南87支,臺南市,左鎮區,中正里15-3號,臺南市左鎮區中正里15-3號,23.058226,120.406233
71243,019123-1,730023,新化中山路郵局,臺南88支,臺南市,新化區,中山路320號,臺南市新化區中山路320號,23.036051,120.306832
71445,019124-4,730024,玉井郵局,臺南89支,臺南市,玉井區,中正路19號,臺南市玉井區中正路19號,23.122783,120.459487
71542,019125-8,730025,楠西郵局,臺南90支,臺南市,楠西區,東勢路117號,臺南市楠西區東勢路117號,23.177384,120.486101
71544,019126-1,730026,曾文水庫郵局,臺南91支,臺南市,楠西區,密枝里70號(曾文水庫管理局內),臺南市楠西區密枝里70號(曾文水庫管理局內),23.221147,120.498316
71642,019127-5,730027,南化郵局,臺南92支,臺南市,南化區,南化里115-11號,臺南市南化區南化里115-11號,23.043181,120.475918
72241,019128-9,730028,佳里郵局,臺南93支,臺南市,佳里區,延平路375號,臺南市佳里區延平路375號,23.163731,120.178129
72542,019129-2,730029,將軍郵局,臺南94支,臺南市,將軍區,西華里1-1號,臺南市將軍區西華里1-1號,23.19947,120.157186
72341,019130-4,730030,西港郵局,臺南95支,臺南市,西港區,中山路351號,臺南市西港區中山路351號,23.123459,120.202932
72441,019131-8,730031,七股郵局,臺南96支,臺南市,七股區,大埕里296號,臺南市七股區大埕里296號,23.143195,120.142405
42881,002228-2,400128,臺中中科郵局,臺中128支,臺中市,大雅區,中科路6號,臺中市大雅區中科路6號,24.209167,120.618669
82546,004263-5,800163,橋頭新市鎮郵局,高雄163支,高雄市,橋頭區,經武路911號,高雄市橋頭區經武路911號,22.738276,120.305154
72263,019132-1,730032,佳里佳里興郵局,臺南97支,臺南市,佳里區,興化里492-8號,臺南市佳里區興化里492-8號,23.189413,120.188174
72243,019133-5,730033,佳里中山路郵局,臺南98支,臺南市,佳里區,中山路141號,臺南市佳里區中山路141號,23.157358,120.177183
72742,019134-9,730034,北門郵局,臺南99支,臺南市,北門區,北門里舊埕91號,臺南市北門區北門里舊埕91號,23.267756,120.124709
72641,019135-2,730035,學甲郵局,臺南100支,臺南市,學甲區,中正路318號,臺南市學甲區中正路318號,23.235061,120.180886
72148,019136-6,730036,麻豆郵局,臺南101支,臺南市,麻豆區,興國路25號,臺南市麻豆區興國路25號,23.181748,120.248121
72153,019137-0,730037,麻豆總爺郵局,臺南102支,臺南市,麻豆區,南勢里106號,臺南市麻豆區南勢里106號,23.184141,120.267592
72143,019138-3,730038,麻豆新生郵局,臺南103支,臺南市,麻豆區,新生南路17號,臺南市麻豆區新生南路17號,23.184177,120.241313
74151,019139-7,730039,善化郵局,臺南104支,臺南市,善化區,中正路332號,臺南市善化區中正路332號,23.127206,120.294195
74247,019140-9,730040,大內郵局,臺南105支,臺南市,大內區,大內里7-2號,臺南市大內區大內里7-2號,23.118619,120.360232
74171,019141-2,730041,善化成功郵局,臺南106支,臺南市,善化區,成功路41號,臺南市善化區成功路41號,23.127537,120.317003
74443,019142-6,730042,新市大營郵局,臺南107支,臺南市,新市區,大營里131-18、131-19號,臺南市新市區大營里131-18、131-19號,23.092555,120.308918
74163,019143-0,730043,善化溪美郵局,臺南108支,臺南市,善化區,溪美里204號,臺南市善化區溪美里204號,23.152984,120.288447
74545,019144-3,730044,安定郵局,臺南109支,臺南市,安定區,保西里449號,臺南市安定區保西里449號,23.121858,120.236467
74441,019146-1,730046,新市郵局,臺南110支,臺南市,新市區,仁愛街217號,臺南市新市區仁愛街217號,23.07584,120.29339
72041,019147-4,730047,官田隆田郵局,臺南111支,臺南市,官田區,勝利路2號,臺南市官田區勝利路2號,23.193281,120.314566
72042,019149-1,730049,官田工業區郵局,臺南112支,臺南市,官田區,二鎮里工業路23號(官田工業區內),臺南市官田區二鎮里工業路23號(官田工業區內),23.210287,120.323272
74144,019150-3,730050,新市南科園區郵局,臺南113支,臺南市,新市區,南科六路6號,臺南市新市區南科六路6號,23.105887,120.280097
74157,019151-7,730051,善化中山路郵局,臺南114支,臺南市,善化區,中山路371號,臺南市善化區中山路371號,23.132167,120.292076
88041,024100-6,880000,馬公中正路郵局,澎湖901支,澎湖縣,馬公市,中正路70號,澎湖縣馬公市中正路70號,23.5671515,119.5635267
88049,024101-0,880001,馬公東文郵局,澎湖1支,澎湖縣,馬公市,東文里新店路465號1樓,澎湖縣馬公市東文里新店路465號1樓,23.5633957,119.5807472
88142,024102-3,880002,西嶼郵局,澎湖2支,澎湖縣,西嶼鄉,池東村212之1號,澎湖縣西嶼鄉池東村212之1號,23.599626,119.5087582
88241,024103-7,880003,望安郵局,澎湖3支,澎湖縣,望安鄉,東安村4之3號,澎湖縣望安鄉東安村4之3號,23.3593378,119.5053737
88341,024104-1,880004,七美郵局,澎湖4支,澎湖縣,七美鄉,海豐村10鄰19號,澎湖縣七美鄉海豐村10鄰19號,23.205437,119.4237901
88442,024105-4,880005,白沙郵局,澎湖5支,澎湖縣,白沙鄉,大赤崁356號,澎湖縣白沙鄉大赤崁356號,23.667237,119.5972901
88048,024106-8,880006,馬公中華路郵局,澎湖6支,澎湖縣,馬公市,中華路84號,澎湖縣馬公市中華路84號,23.570942,119.5704744
88541,024107-1,880007,湖西郵局,澎湖7支,澎湖縣,湖西鄉,湖西村77-11號,澎湖縣湖西鄉湖西村77-11號,23.5843522,119.654795
88055,024108-5,880008,馬公鎖港郵局,澎湖8支,澎湖縣,馬公市,鎖港里1483號,澎湖縣馬公市鎖港里1483號,23.5242261,119.5941904
88593,024109-9,880009,湖西隘門郵局,澎湖9支,澎湖縣,湖西鄉,隘門村27之1號,澎湖縣湖西鄉隘門村27之1號,23.5628501,119.6340054
95044,026100-9,950000,臺東大同路郵局,臺東901支,臺東縣,臺東市,大同路126號,臺東縣臺東市大同路126號,22.752944,121.153945
95241,026101-2,950001,蘭嶼郵局,臺東1支,臺東縣,蘭嶼鄉,紅頭村37號,臺東縣蘭嶼鄉紅頭村37號,22.025397,121.554155
95053,026102-6,950002,臺東新生郵局,臺東2支,臺東縣,臺東市,新生路706號,臺東縣臺東市新生路706號,22.858612,121.129348
95141,026103-0,950003,綠島郵局,臺東3支,臺東縣,綠島鄉,南寮村186號,臺東縣綠島鄉南寮村186號,22.668716,121.468822
95043,026104-3,950004,臺東中山路郵局,臺東4支,臺東縣,臺東市,中山路382號,臺東縣臺東市中山路382號,22.753328,121.148352
95043,026105-7,950005,臺東博愛路郵局,臺東5支,臺東縣,臺東市,博愛路135號,臺東縣臺東市博愛路135號,22.759968,121.15149
95059,026106-1,950006,臺東卑南郵局,臺東6支,臺東縣,臺東市,更生北路42號,臺東縣臺東市更生北路42號,22.778097,121.126186
95941,026107-4,950007,東河都蘭郵局,臺東7支,臺東縣,東河鄉,都蘭村201號,臺東縣東河鄉都蘭村201號,22.875055,121.228806
95344,026108-8,950008,延平郵局,臺東8支,臺東縣,延平鄉,桃源村昇平路30號,臺東縣延平鄉桃源村昇平路30號,22.902678,121.085068
95092,026109-1,950009,臺東知本郵局,臺東9支,臺東縣,臺東市,青海路四段370號,臺東縣臺東市青海路四段370號,22.708322,121.041228
95542,026110-3,950010,鹿野郵局,臺東10支,臺東縣,鹿野鄉,中華路一段427號,臺東縣鹿野鄉中華路一段427號,22.910759,121.136054
95060,026111-7,950011,臺東豐田郵局,臺東11支,臺東縣,臺東市,中興路四段615號,臺東縣臺東市中興路四段615號,22.790373,121.086909
95442,026112-1,950012,卑南初鹿郵局,臺東12支,臺東縣,卑南鄉,明峰村文泰路12號,臺東縣卑南鄉明峰村文泰路12號,22.857495,121.092614
96346,026113-4,950013,太麻里郵局,臺東13支,臺東縣,太麻里鄉,泰和村太麻里街191號,臺東縣太麻里鄉泰和村太麻里街191號,22.612118,121.00625
96344,026114-8,950014,金峰金崙郵局,臺東14支,臺東縣,太麻里鄉,金崙村323號,臺東縣太麻里鄉金崙村323號,22.534312,120.963792
95048,026116-5,950016,臺東馬蘭郵局,臺東16支,臺東縣,臺東市,鄭州街3號1樓,臺東縣臺東市鄭州街3號1樓,22.761893,121.144187
95056,026117-9,950017,臺東豐榮郵局,臺東17支,臺東縣,臺東市,中華路二段168號,臺東縣臺東市中華路二段168號,22.74473,121.138242
95642,026118-2,950018,關山郵局,臺東18支,臺東縣,關山鎮,中正路25號,臺東縣關山鎮中正路25號,23.047938,121.16077
95741,026119-6,950019,海端郵局,臺東19支,臺東縣,海端鄉,海端村山界27號,臺東縣海端鄉海端村山界27號,23.101224,121.176751
95872,026120-8,950020,池上郵局,臺東20支,臺東縣,池上鄉,中山路201號,臺東縣池上鄉中山路201號,23.124605,121.218
96145,026121-1,950021,成功郵局,臺東21支,臺東縣,成功鎮,中華路77號,臺東縣成功鎮中華路77號,23.100897,121.378367
96241,026122-5,950022,長濱郵局,臺東22支,臺東縣,長濱鄉,長濱村中興路16號,臺東縣長濱鄉長濱村中興路16號,23.31785,121.454658
95991,026123-9,950023,東河泰源郵局,臺東23支,臺東縣,東河鄉,泰源村本部落246號,臺東縣東河鄉泰源村本部落246號,22.998723,121.286379
96541,026124-2,950024,大武郵局,臺東24支,臺東縣,大武鄉,大武村大武街60號,臺東縣大武鄉大武村大武街60號,22.358001,120.905304
96693,026125-6,950025,達仁郵局,臺東25支,臺東縣,達仁鄉,安朔村復興路130號,臺東縣達仁鄉安朔村復興路130號,22.295071,120.88316
95543,026126-0,950026,鹿野瑞源郵局,臺東26支,臺東縣,鹿野鄉,瑞源村瑞景路1段388號,臺東縣鹿野鄉瑞源村瑞景路1段388號,22.95734,121.158243
95065,026127-3,950027,臺東東方大鎮郵局,臺東27支,臺東縣,臺東市,中興路2段436號,臺東縣臺東市中興路2段436號,22.769056,121.123687
36049,029100-8,360000,苗栗中苗郵局,苗栗901支,苗栗縣,苗栗市,中正路532號,苗栗縣苗栗市中正路532號,24.558433,120.820839
36241,029102-5,360002,頭屋郵局,苗栗2支,苗栗縣,頭屋鄉,尖豐路17號,苗栗縣頭屋鄉尖豐路17號,24.576325,120.85427
36043,029103-9,360003,苗栗北苗郵局,苗栗3支,苗栗縣,苗栗市,中正路138號,苗栗縣苗栗市中正路138號,24.566789,120.82391
36052,029104-2,360004,苗栗南苗郵局,苗栗4支,苗栗縣,苗栗市,中正路961號,苗栗縣苗栗市中正路961號,24.550191,120.81619
36841,029105-6,360005,西湖郵局,苗栗5支,苗栗縣,西湖鄉,金獅村11-6號,苗栗縣西湖鄉金獅村11-6號,24.559412,120.759124
36048,029106-0,360006,苗栗文山郵局,苗栗6支,苗栗縣,苗栗市,至公路448號,苗栗縣苗栗市至公路448號,24.564137,120.811837
36053,029107-3,360007,苗栗福星郵局,苗栗7支,苗栗縣,苗栗市,中華路629號,苗栗縣苗栗市中華路629號,24.58553,120.824974
36041,029108-7,360008,苗栗嘉盛郵局,苗栗8支,苗栗縣,苗栗市,國華路158號,苗栗縣苗栗市國華路158號,24.57451,120.829464
36350,029109-1,360009,公館郵局,苗栗9支,苗栗縣,公館鄉,大同路115號,苗栗縣公館鄉大同路115號,24.501597,120.828013
36343,029110-2,360010,公館鶴岡郵局,苗栗10支,苗栗縣,公館鄉,鶴山村239號,苗栗縣公館鄉鶴山村239號,24.531572,120.832042
36641,029111-6,360011,銅鑼郵局,苗栗11支,苗栗縣,銅鑼鄉,中正路153號,苗栗縣銅鑼鄉中正路153號,24.488258,120.787105
36046,029112-0,360012,苗栗府前郵局,苗栗12支,苗栗縣,苗栗市,忠孝路119號,苗栗縣苗栗市忠孝路119號,24.562864,120.818369
35646,029113-3,360013,後龍郵局,苗栗13支,苗栗縣,後龍鎮,大庄里光華一街2號,苗栗縣後龍鎮大庄里光華一街2號,24.612308,120.789613
35741,029114-7,360014,通霄郵局,苗栗14支,苗栗縣,通霄鎮,通西里中正路74號,苗栗縣通霄鎮通西里中正路74號,24.490847,120.680135
35742,029115-1,360015,通霄白沙屯郵局,苗栗15支,苗栗縣,通霄鎮,白東里142號,苗栗縣通霄鎮白東里142號,24.564312,120.708983
36441,029116-4,360016,大湖郵局,苗栗16支,苗栗縣,大湖鄉,中正路42號,苗栗縣大湖鄉中正路42號,24.422234,120.868168
35441,029117-8,360017,獅潭郵局,苗栗17支,苗栗縣,獅潭鄉,新店村7鄰58-2號,苗栗縣獅潭鄉新店村7鄰58-2號,24.541638,120.922231
36541,029118-1,360018,泰安郵局,苗栗18支,苗栗縣,泰安鄉,清安村洗水坑23號,苗栗縣泰安鄉清安村洗水坑23號,24.446263,120.90556
36745,029119-5,360019,三義郵局,苗栗19支,苗栗縣,三義鄉,中正路101號,苗栗縣三義鄉中正路101號,24.414283,120.772562
35850,029120-7,360020,苑裡郵局,苗栗20支,苗栗縣,苑裡鎮,忠勇街15號,苗栗縣苑裡鎮忠勇街15號,24.441861,120.65347
35869,029121-1,360021,苑裡山腳郵局,苗栗21支,苗栗縣,苑裡鎮,舊社里63號,苗栗縣苑裡鎮舊社里63號,24.415924,120.684825
35872,029122-4,360022,苑裡社苓郵局,苗栗22支,苗栗縣,苑裡鎮,社苓里90-5號,苗栗縣苑裡鎮社苓里90-5號,24.402191,120.675445
35041,029123-8,360023,竹南郵局,苗栗23支,苗栗縣,竹南鎮,民族街86號,苗栗縣竹南鎮民族街86號,24.685902,120.878531
36144,029124-1,360024,造橋郵局,苗栗24支,苗栗縣,造橋鄉,造橋村平仁路32號,苗栗縣造橋鄉造橋村平仁路32號,24.640688,120.866098
35042,029125-5,360025,竹南中港郵局,苗栗25支,苗栗縣,竹南鎮,中正路244號,苗栗縣竹南鎮中正路244號,24.683306,120.866853
35053,029126-9,360026,竹南科學園郵局,苗栗26支,苗栗縣,竹南鎮,科研路36號1樓101室,苗栗縣竹南鎮科研路36號1樓101室,24.707069,120.923215
36142,029127-2,360027,造橋大西郵局,苗栗27支,苗栗縣,造橋鄉,大西村大西一街98號,苗栗縣造橋鄉大西村大西一街98號,24.622847,120.890844
35044,029128-6,360028,竹南照南郵局,苗栗28支,苗栗縣,竹南鎮,光復路352號,苗栗縣竹南鎮光復路352號,24.691583,120.879793
35152,029129-0,360029,頭份郵局,苗栗29支,苗栗縣,頭份市,和平路102號,苗栗縣頭份市和平路102號,24.685988,120.906205
35152,029130-1,360030,頭份斗煥郵局,苗栗30支,苗栗縣,頭份市,中正二路157號,苗栗縣頭份市中正二路157號,24.681548,120.944878
35241,029131-5,360031,三灣郵局,苗栗31支,苗栗縣,三灣鄉,中正路310號,苗栗縣三灣鄉中正路310號,24.656626,120.958893
35155,029132-9,360032,頭份田寮郵局,苗栗32支,苗栗縣,頭份市,民族路738號,苗栗縣頭份市民族路738號,24.685191,120.886506
35151,029133-2,360033,頭份上公園郵局,苗栗33支,苗栗縣,頭份市,中正路221-1號,苗栗縣頭份市中正路221-1號,24.688398,120.914258
35341,029134-6,360034,南庄郵局,苗栗34支,苗栗縣,南庄鄉,中正路202號,苗栗縣南庄鄉中正路202號,24.603904,121.000859
35154,029135-0,360035,頭份尖山郵局,苗栗35支,苗栗縣,頭份市,中華路87號,苗栗縣頭份市中華路87號,24.664266,120.879676
35149,029136-3,360036,頭份蟠桃郵局,苗栗36支,苗栗縣,頭份市,建國路150號,苗栗縣頭份市建國路150號,24.696241,120.909184
36941,029137-7,360037,卓蘭郵局,苗栗37支,苗栗縣,卓蘭鎮,中山路133號,苗栗縣卓蘭鎮中山路133號,24.313358,120.824311
64051,030100-8,640000,斗六西平路郵局,雲林901支,雲林縣,斗六市,西平路1號,雲林縣斗六市西平路1號,23.707019,120.539586
64741,030101-1,640001,莿桐郵局,雲林1支,雲林縣,莿桐鄉,中山路71號,雲林縣莿桐鄉中山路71號,23.756371,120.499438
64063,030102-5,640002,斗六大崙郵局,雲林2支,雲林縣,斗六市,仁義路89號,雲林縣斗六市仁義路89號,23.679045,120.538444
64069,030103-9,640003,斗六石榴郵局,雲林3支,雲林縣,斗六市,榴中里工業路77號,雲林縣斗六市榴中里工業路77號,23.721869,120.588982
64048,030104-2,640004,斗六鎮北郵局,雲林4支,雲林縣,斗六市,慶生路37號,雲林縣斗六市慶生路37號,23.713095,120.539688
64045,030105-6,640005,斗六永安郵局,雲林5支,雲林縣,斗六市,永安路8號,雲林縣斗六市永安路8號,23.710659,120.547798
64746,030106-0,640006,莿桐饒平郵局,雲林6支,雲林縣,莿桐鄉,永基路23之7號,雲林縣莿桐鄉永基路23之7號,23.775762,120.525357
64341,030107-3,640007,林內郵局,雲林7支,雲林縣,林內鄉,中正路332號,雲林縣林內鄉中正路332號,23.756412,120.6134
64650,030108-7,640008,古坑郵局,雲林8支,雲林縣,古坑鄉,中山路123號,雲林縣古坑鄉中山路123號,23.644653,120.561948
64643,030109-1,640009,古坑東和郵局,雲林9支,雲林縣,古坑鄉,文化路96號,雲林縣古坑鄉文化路96號,23.683746,120.569027
64649,030110-2,640010,古坑草嶺郵局,雲林10支,雲林縣,古坑鄉,草嶺村37-29號,雲林縣古坑鄉草嶺村37-29號,23.583786,120.69349
63042,030111-6,640011,斗南郵局,雲林11支,雲林縣,斗南鎮,中山路77號,雲林縣斗南鎮中山路77號,23.67525,120.479174
63146,030112-0,640012,大埤郵局,雲林12支,雲林縣,大埤鄉,中山路6號,雲林縣大埤鄉中山路6號,23.645639,120.431919
63048,030113-3,640013,斗南石龜郵局,雲林13支,雲林縣,斗南鎮,中和路54號,雲林縣斗南鎮中和路54號,23.641391,120.482819
63051,030114-7,640014,斗南新光郵局,雲林14支,雲林縣,斗南鎮,光興路78號,雲林縣斗南鎮光興路78號,23.689422,120.481423
64855,030115-1,640015,西螺郵局,雲林15支,雲林縣,西螺鎮,福興路167-1號,雲林縣西螺鎮福興路167-1號,23.799834,120.460526
64861,030116-4,640016,西螺埔心郵局,雲林16支,雲林縣,西螺鎮,埔心路164號,雲林縣西螺鎮埔心路164號,23.798215,120.441428
63243,030117-8,640017,虎尾郵局,雲林17支,雲林縣,虎尾鎮,林森路一段495號,雲林縣虎尾鎮林森路一段495號,23.709063,120.433443
63242,030118-1,640018,虎尾圓環郵局,雲林18支,雲林縣,虎尾鎮,光復路387號,雲林縣虎尾鎮光復路387號,23.709835,120.437847
64941,030120-7,640020,二崙郵局,雲林20支,雲林縣,二崙鄉,中山路一段178號,雲林縣二崙鄉中山路一段178號,23.771683,120.415621
64945,030121-1,640021,二崙油車郵局,雲林21支,雲林縣,二崙鄉,文化路260、262號,雲林縣二崙鄉文化路260、262號,23.795514,120.384536
63201,030122-4,640022,虎尾科技大學郵局,雲林22支,雲林縣,虎尾鎮,文化路64號,雲林縣虎尾鎮文化路64號,23.701567,120.430697
63347,030123-8,640023,土庫郵局,雲林23支,雲林縣,土庫鎮,大同路65號,雲林縣土庫鎮大同路65號,23.67617,120.394945
63351,030124-1,640024,土庫馬光郵局,雲林24支,雲林縣,土庫鎮,馬光路177-5號,雲林縣土庫鎮馬光路177-5號,23.705262,120.353309
63741,030125-5,640025,崙背郵局,雲林25支,雲林縣,崙背鄉,民主路5號,雲林縣崙背鄉民主路5號,23.759592,120.352674
63841,030126-9,640026,麥寮郵局,雲林26支,雲林縣,麥寮鄉,光復路24號,雲林縣麥寮鄉光復路24號,23.747555,120.256023
63641,030127-2,640027,臺西郵局,雲林27支,雲林縣,臺西鄉,中山路161號,雲林縣臺西鄉中山路161號,23.700254,120.198813
63441,030128-6,640028,褒忠郵局,雲林28支,雲林縣,褒忠鄉,三民路44號,雲林縣褒忠鄉三民路44號,23.693564,120.311587
63545,030129-0,640029,東勢厝郵局,雲林29支,雲林縣,東勢鄉,東南村東勢西路32號,雲林縣東勢鄉東南村東勢西路32號,23.676043,120.252739
63801,030130-1,640030,麥寮工業區郵局,雲林30支,雲林縣,麥寮鄉,台塑工業園區1號,雲林縣麥寮鄉台塑工業園區1號,23.802597,120.221383
63866,030131-5,640031,麥寮橋頭郵局,雲林31支,雲林縣,麥寮鄉,橋頭村仁德路96-1號,雲林縣麥寮鄉橋頭村仁德路96-1號,23.796328,120.277537
65144,030132-9,640032,北港郵局,雲林32支,雲林縣,北港鎮,文化路54號,雲林縣北港鎮文化路54號,23.569249,120.301856
65143,030133-2,640033,北港南陽郵局,雲林33支,雲林縣,北港鎮,中山路6號,雲林縣北港鎮中山路6號,23.5643,120.304112
65141,030134-6,640034,北港北辰郵局,雲林34支,雲林縣,北港鎮,民有路26號,雲林縣北港鎮民有路26號,23.573572,120.301667
65241,030135-0,640035,水林郵局,雲林35支,雲林縣,水林鄉,水林路10號,雲林縣水林鄉水林路10號,23.572646,120.246131
65341,030136-3,640036,口湖郵局,雲林36支,雲林縣,口湖鄉,湖東村廟前街26號,雲林縣口湖鄉湖東村廟前街26號,23.585736,120.182925
65342,030137-7,640037,口湖?梧郵局,雲林37支,雲林縣,口湖鄉,光明路36號,雲林縣口湖鄉光明路36號,23.546374,120.191269
65441,030138-1,640038,四湖郵局,雲林38支,雲林縣,四湖鄉,中正路347號,雲林縣四湖鄉中正路347號,23.636501,120.225657
65545,030139-4,640039,元長郵局,雲林39支,雲林縣,元長鄉,仁愛路3號,雲林縣元長鄉仁愛路3號,23.649582,120.313898
22047,031100-4,220000,板橋文化路郵局,板橋901支,新北市,板橋區,文化路1段395號,新北市板橋區文化路1段395號,25.022083,121.467261
22058,031101-8,220001,板橋大觀路郵局,板橋1支,新北市,板橋區,大觀路1段47號,新北市板橋區大觀路1段47號,25.00766,121.448179
23669,031102-1,220002,土城郵局,板橋2支,新北市,土城區,中央路2段160號,新北市土城區中央路2段160號,24.976653,121.441751
22064,031103-5,220003,板橋後埔郵局,板橋3支,新北市,板橋區,實踐路128號,新北市板橋區實踐路128號,25.002866,121.464319
22067,031104-9,220004,板橋埔墘郵局,板橋4支,新北市,板橋區,中山路2段109號,新北市板橋區中山路2段109號,25.016312,121.47459
22042,031106-6,220006,板橋莒光郵局,板橋6支,新北市,板橋區,莒光路213號,新北市板橋區莒光路213號,25.02305,121.47421
22055,031107-0,220007,板橋站前郵局,板橋7支,新北市,板橋區,府中路16號,新北市板橋區府中路16號,25.009908,121.460081
22065,031108-3,220008,板橋民族路郵局,板橋8支,新北市,板橋區,民族路263號,新北市板橋區民族路263號,25.006934,121.470522
22054,031109-7,220009,板橋中正路郵局,板橋9支,新北市,板橋區,中正路35號,新北市板橋區中正路35號,25.013055,121.4562
23678,031110-9,220010,土城工業區郵局,板橋10支,新北市,土城區,三民路4號,新北市土城區三民路4號,24.963093,121.420842
22060,031112-6,220012,板橋南雅郵局,板橋12支,新北市,板橋區,南雅南路1段123號,新北市板橋區南雅南路1段123號,25.004626,121.455275
